timestamp,ekf_x,ekf_y,ekf_z,ekf_vx,ekf_vy,ekf_vz,ekf_roll,ekf_pitch,ekf_yaw
0.000000,0.588870,-1.393777,0.119748,10.474198,10.429196,-0.053182,0.000000,0.000000,0.785398
0.100000,1.441053,-0.242030,0.205819,10.459875,10.334215,-0.036621,0.114345,-0.027176,0.784381
0.200000,2.283774,1.158147,0.720840,10.441864,10.509112,0.040221,-0.052465,-0.090918,0.824600
0.300000,3.314931,2.335344,0.696363,10.365826,10.630449,0.115743,-0.116634,-0.069897,0.635093
0.400000,4.790462,3.393038,0.541435,10.651418,10.496083,0.108444,-0.070133,0.047682,0.604061
0.500000,5.873645,4.695439,0.569675,10.617019,10.455932,0.051137,-0.051128,0.042028,0.646246
0.600000,7.127225,5.506382,0.532273,10.478403,10.329120,0.013871,-0.025719,0.014665,0.692572
0.700000,8.251349,6.505836,0.732769,10.556130,10.348087,0.076174,-0.031210,0.029886,0.688044
0.800000,9.375364,7.607296,0.698140,10.472020,10.367536,0.079052,-0.033006,0.018497,0.710327
0.900000,10.451899,8.913342,0.645832,10.479591,10.372805,0.092644,-0.032616,0.019195,0.706983
1.000000,11.313328,9.897649,0.615423,10.428231,10.307842,0.109725,-0.026851,0.014845,0.691832
1.100000,12.138411,10.920203,0.603361,10.412593,10.246107,0.043412,-0.021916,0.015630,0.691647
1.200000,13.217644,12.067954,0.567322,10.410069,10.219153,0.000584,-0.021397,0.017056,0.693443
1.300000,14.216146,13.058932,0.584191,10.385845,10.116804,-0.028166,-0.013992,0.017047,0.697570
1.400000,15.254601,14.046482,0.535101,10.331487,10.171353,0.056745,-0.021355,0.012432,0.698444
1.500000,16.417398,15.075078,0.448999,10.443972,9.986722,0.091137,-0.011799,0.022313,0.777922
1.600000,17.464133,16.039621,0.543264,10.268084,10.006008,-0.129005,-0.013290,0.011926,0.710280
1.700000,18.341196,17.101329,0.475857,10.311089,9.891705,-0.018235,-0.009208,0.015311,0.737151
1.800000,19.379941,18.108632,0.630101,10.304134,9.742787,0.016386,-0.002986,0.015965,0.747789
1.900000,20.445387,19.173620,0.588106,10.270303,9.624762,0.023517,-0.000064,0.015268,0.724097
2.000000,21.443008,20.190195,0.435492,10.184758,9.585074,0.025414,-0.000588,0.011635,0.663082
2.100000,22.421890,21.224693,0.453196,10.193303,9.548225,0.033944,-0.003988,0.012238,0.690774
2.200000,23.398032,22.216135,0.571808,10.211720,9.509987,0.092076,-0.008050,0.013663,0.725368
2.300000,24.430430,23.163280,0.523116,10.120335,9.434846,0.134785,-0.007672,0.012017,0.669834
2.400000,25.445496,24.194536,0.576270,10.166926,9.319926,0.073106,-0.006751,0.013250,0.709390
2.500000,26.417651,25.045485,0.593156,10.124916,9.129683,0.087388,-0.001201,0.012431,0.694096
2.600000,27.432311,25.961456,0.601478,10.147882,9.001932,-0.065499,0.000089,0.012891,0.725347
2.700000,28.384057,26.902046,0.569145,9.986333,8.915972,-0.016442,0.001234,0.010750,0.619495
2.800000,29.436963,27.828795,0.607380,10.023555,8.873630,-0.057702,-0.002288,0.011847,0.656527
2.900000,30.425754,28.686651,0.606206,9.990762,8.569222,-0.013892,0.005777,0.011504,0.641724
3.000000,31.369205,29.498261,0.627043,10.101475,8.488466,0.070023,0.001346,0.012856,0.746191
3.100000,32.317844,30.368973,0.688646,10.015756,8.367241,0.083857,0.002576,0.012075,0.691942
3.200000,33.287412,31.209413,0.696621,9.915939,8.187523,0.012678,0.006330,0.011514,0.642232
3.300000,34.289160,32.047343,0.694825,9.970527,8.086813,0.105960,0.004419,0.011973,0.677876
3.400000,35.182875,32.907055,0.726907,9.839228,7.865873,0.124900,0.009359,0.010867,0.629082
3.500000,36.132163,33.648271,0.736395,9.746333,7.760774,0.071383,0.009385,0.011028,0.591460
3.600000,37.082745,34.366849,0.699787,9.773201,7.668184,0.046916,0.007042,0.011361,0.611250
3.700000,38.060568,35.171571,0.716643,9.694941,7.537805,-0.052387,0.008032,0.011105,0.587502
3.800000,38.963693,35.885532,0.676611,9.620175,7.413645,0.072367,0.006737,0.011528,0.559378
3.900000,39.879514,36.638634,0.630175,9.610390,7.219674,0.064669,0.007993,0.010849,0.564295
4.000000,40.849608,37.383286,0.596252,9.676825,6.984256,0.113968,0.009776,0.009606,0.615595
4.100000,41.830682,38.040647,0.571270,9.448349,6.823058,0.039899,0.013041,0.009830,0.516458
4.200000,42.800962,38.770194,0.574444,9.425194,6.687591,-0.032012,0.012496,0.009930,0.509877
4.300000,43.732917,39.415748,0.550585,9.286680,6.345443,-0.031001,0.020677,0.008522,0.472276
4.400000,44.651831,40.066983,0.571499,9.278069,6.274825,-0.049722,0.017903,0.009469,0.467159
4.500000,45.541863,40.620625,0.602301,9.185656,6.101625,-0.030924,0.017684,0.010275,0.436583
4.600000,46.431329,41.193254,0.624589,9.264131,5.942054,-0.038377,0.015867,0.009686,0.476940
4.700000,47.407035,41.760873,0.561298,9.263009,5.661481,-0.056659,0.018918,0.007817,0.493595
4.800000,48.334161,42.316460,0.482971,9.148979,5.611693,-0.109164,0.015456,0.009727,0.442343
4.900000,49.267426,42.868516,0.514544,9.039873,5.473402,0.033161,0.013805,0.010593,0.408483
5.000000,50.125706,43.422989,0.490110,9.090989,5.322654,-0.032745,0.012204,0.010407,0.421278
5.100000,51.075163,43.953538,0.448400,9.087657,5.083595,-0.038341,0.013799,0.009608,0.432303
5.200000,51.999009,44.427717,0.376521,9.014673,4.815161,0.018477,0.015538,0.009148,0.413324
5.300000,52.902509,44.878730,0.375730,8.823082,4.664848,0.056831,0.015445,0.009874,0.357096
5.400000,53.807936,45.327763,0.341666,8.922124,4.568213,0.047940,0.009864,0.011061,0.376087
5.500000,54.625083,45.743041,0.367917,8.753240,4.271312,0.075727,0.014188,0.008750,0.348166
5.600000,55.424562,46.129451,0.383565,8.680629,4.012233,0.101830,0.015378,0.007828,0.336093
5.700000,56.319838,46.548490,0.352901,8.700064,3.774704,0.096837,0.016130,0.007651,0.342060
5.800000,57.201568,46.979663,0.357233,8.605894,3.533601,-0.111511,0.020158,0.006616,0.320407
5.900000,58.079514,47.317449,0.345094,8.505809,3.326689,0.110605,0.017710,0.007492,0.288854
6.000000,58.936553,47.647414,0.342264,8.529023,3.258740,0.050010,0.012487,0.009445,0.278510
6.100000,59.822226,47.979441,0.400096,8.480074,3.041113,-0.097468,0.014005,0.008950,0.267470
6.200000,60.668462,48.233573,0.366813,8.321271,2.774058,-0.050588,0.016169,0.008067,0.228473
6.300000,61.450215,48.483064,0.337300,8.245109,2.597415,0.102217,0.013233,0.008569,0.202110
6.400000,62.249432,48.743192,0.333462,8.198290,2.301132,0.100333,0.016122,0.007955,0.191004
6.500000,63.063378,48.941715,0.355621,8.216877,2.112323,-0.061877,0.016126,0.009294,0.181126
6.600000,63.875879,49.135525,0.317641,8.005843,1.965951,0.041802,0.013119,0.010839,0.122551
6.700000,64.700539,49.340268,0.338260,7.970884,1.727518,0.034162,0.013661,0.010973,0.104714
6.800000,65.474472,49.505337,0.283097,7.967893,1.406956,0.162188,0.016211,0.011009,0.097718
6.900000,66.324040,49.618766,0.241053,8.043343,1.383867,0.061985,0.008880,0.016411,0.075201
7.000000,67.093552,49.741316,0.252078,7.949709,1.162993,-0.027618,0.009886,0.015638,0.048241
7.100000,67.862760,49.796100,0.273041,7.780741,0.910417,-0.018406,0.011364,0.013517,0.012326
7.200000,68.634615,49.860617,0.285509,7.680873,0.681312,0.013090,0.011390,0.013429,-0.015891
7.300000,69.400928,49.920147,0.270138,7.628053,0.404249,-0.057517,0.013769,0.013051,-0.039133
7.400000,70.138707,49.929886,0.324521,7.426524,0.096396,-0.054785,0.017245,0.008035,-0.065901
7.500000,70.904787,49.962189,0.331042,7.458498,-0.046765,0.043225,0.013695,0.013918,-0.097726
7.600000,71.627657,49.980145,0.369836,7.282660,-0.210717,0.143584,0.011429,0.012135,-0.135812
7.700000,72.360013,49.957188,0.375231,7.114880,-0.518853,-0.002897,0.016108,0.007072,-0.161432
7.800000,73.057703,49.902373,0.389724,7.127433,-0.657289,0.013680,0.013316,0.010801,-0.193556
7.900000,73.786014,49.786361,0.419150,6.934344,-0.922055,-0.058911,0.015139,0.006423,-0.224707
8.000000,74.485964,49.715125,0.397329,7.068661,-1.123751,0.054693,0.013097,0.014360,-0.249767
8.100000,75.150112,49.617040,0.350525,6.842863,-1.425414,0.058742,0.016048,0.008814,-0.284047
8.200000,75.813232,49.478550,0.358616,6.737916,-1.638210,-0.011082,0.016538,0.007428,-0.315631
8.300000,76.464121,49.317200,0.342750,6.668694,-1.794004,-0.057804,0.014977,0.010069,-0.354010
8.400000,77.117394,49.192065,0.328785,6.648599,-1.812614,-0.005234,0.008142,0.018007,-0.406121
8.500000,77.789236,49.001831,0.314441,6.542408,-2.121920,0.043037,0.010225,0.016602,-0.433232
8.600000,78.444192,48.733769,0.342695,6.526662,-2.387995,-0.002267,0.011928,0.018648,-0.462492
8.700000,79.083943,48.514615,0.312622,6.431336,-2.614060,-0.011036,0.012333,0.019024,-0.495259
8.800000,79.699259,48.272160,0.340314,6.419492,-2.690394,0.045024,0.007798,0.026540,-0.543287
8.900000,80.315573,47.999960,0.339310,6.310464,-2.983498,-0.049347,0.010446,0.024675,-0.572044
9.000000,80.943561,47.736671,0.324632,6.229304,-3.298012,-0.111105,0.014489,0.023840,-0.599907
9.100000,81.581884,47.393948,0.288089,6.105843,-3.460303,-0.103780,0.012242,0.023560,-0.634367
9.200000,82.188282,47.021930,0.261598,6.027462,-3.770678,-0.090919,0.015311,0.023727,-0.663698
9.300000,82.746590,46.650830,0.255970,5.925320,-3.928832,-0.054171,0.013557,0.025073,-0.699316
9.400000,83.354348,46.208480,0.256572,5.871909,-4.197314,-0.116739,0.015796,0.026493,-0.729861
9.500000,83.945302,45.792854,0.237071,5.709511,-4.424607,-0.007507,0.013960,0.024126,-0.760867
9.600000,84.502308,45.354497,0.245806,5.657159,-4.479421,-0.014425,0.009947,0.029530,-0.803369
9.700000,85.047531,44.926145,0.221711,5.416402,-4.610327,-0.040759,0.005939,0.022052,-0.824404
9.800000,85.624577,44.473118,0.212633,5.364973,-4.740973,-0.020508,0.004068,0.026494,-0.862380
9.900000,86.145278,43.984089,0.193443,5.346167,-4.994673,0.012336,0.005928,0.032190,-0.898433
10.000000,86.647965,43.493707,0.203489,5.192026,-5.194684,0.016755,0.004485,0.029186,-0.921916
10.100000,87.159286,42.946948,0.179679,5.075465,-5.484769,0.003264,0.007153,0.028043,-0.944837
10.200000,87.672672,42.402755,0.160985,4.892046,-5.643968,-0.088815,0.004995,0.021660,-0.958812
10.300000,88.160288,41.857272,0.190956,4.876811,-5.931595,-0.033956,0.010087,0.029366,-0.999956
10.400000,88.648863,41.260549,0.173290,4.756738,-6.034506,-0.118967,0.007275,0.027946,-1.021299
10.500000,89.087698,40.633706,0.175485,4.673628,-6.175365,-0.135732,0.006188,0.031686,-1.054583
10.600000,89.549519,40.020568,0.158733,4.541582,-6.375204,-0.123690,0.005602,0.030990,-1.077167
10.700000,89.991296,39.358748,0.140946,4.485777,-6.432784,-0.179629,0.002871,0.037165,-1.115119
10.800000,90.460993,38.702727,0.128153,4.318969,-6.768096,-0.072766,0.005750,0.032581,-1.128549
10.900000,90.890036,37.982592,0.117735,4.436646,-6.972550,-0.147324,0.011647,0.051172,-1.187938
11.000000,91.318075,37.276412,0.089043,4.108179,-7.055298,-0.055300,0.004066,0.039426,-1.188351
11.100000,91.743210,36.548421,0.102598,4.168809,-7.106541,-0.013104,0.004032,0.057116,-1.251183
11.200000,92.128327,35.842855,0.082633,4.063526,-7.192917,-0.086048,0.001333,0.058533,-1.273875
11.300000,92.548418,35.134402,0.062503,3.980459,-7.443208,-0.045407,0.003435,0.060926,-1.297309
11.400000,92.924991,34.333608,0.085210,3.810291,-7.678684,-0.014350,0.003819,0.057287,-1.306932
11.500000,93.287759,33.544449,0.080111,3.712599,-7.818732,0.038521,0.002809,0.060228,-1.332273
11.600000,93.670998,32.744080,0.074496,3.569010,-7.952924,-0.077347,0.000383,0.057253,-1.342897
11.700000,94.023721,31.961813,0.071558,3.490530,-8.010379,0.159152,-0.005077,0.060538,-1.365282
11.800000,94.371691,31.138052,0.091211,3.471955,-8.115458,0.043643,-0.005063,0.067754,-1.397141
11.900000,94.675419,30.322104,0.103844,3.340923,-8.330814,-0.039725,-0.003372,0.065949,-1.408774
12.000000,94.984467,29.517242,0.064224,3.237076,-8.456434,-0.033128,-0.004906,0.067966,-1.428093
12.100000,95.335420,28.648885,0.031954,3.131150,-8.598244,-0.128655,-0.005822,0.068192,-1.443420
12.200000,95.645619,27.801472,-0.001293,3.088260,-8.881184,-0.022572,0.000279,0.075811,-1.476706
12.300000,95.908574,26.940069,0.018672,2.911329,-8.914700,0.111569,-0.004915,0.075928,-1.494281
12.400000,96.218165,26.015838,0.039530,2.839541,-9.048750,0.002260,-0.004899,0.078774,-1.514742
12.500000,96.510173,25.092399,0.029106,2.717830,-9.034572,0.051856,-0.009677,0.082745,-1.540393
12.600000,96.779434,24.198725,0.035691,2.571216,-9.152600,0.077709,-0.011669,0.081982,-1.551929
12.700000,97.037693,23.278047,0.072172,2.517081,-9.251501,-0.031507,-0.010527,0.089719,-1.583795
12.800000,97.286145,22.337619,0.049231,2.446100,-9.446701,-0.038807,-0.007672,0.094580,-1.607223
12.900000,97.491170,21.415810,0.024930,2.399523,-9.418313,-0.020024,-0.011877,0.101858,-1.638004
13.000000,97.736515,20.462588,0.022143,2.170090,-9.586031,-0.009765,-0.013388,0.095471,-1.633714
13.100000,97.943114,19.518224,0.026348,2.162383,-9.692466,-0.004278,-0.011747,0.105310,-1.669252
13.200000,98.152166,18.551538,0.004806,1.972528,-9.651052,-0.058226,-0.017719,0.105332,-1.684611
13.300000,98.342328,17.595505,0.004666,1.839459,-9.814910,0.009712,-0.017516,0.106627,-1.698782
13.400000,98.516539,16.618148,0.013684,1.753392,-9.987333,0.051046,-0.014560,0.111169,-1.720720
13.500000,98.681497,15.599405,0.035031,1.676897,-10.029656,0.086235,-0.015841,0.117083,-1.746768
13.600000,98.850651,14.581207,0.004857,1.511583,-10.103745,-0.016022,-0.018671,0.114195,-1.749161
13.700000,99.005932,13.586107,0.014273,1.414104,-10.030200,0.022344,-0.025437,0.118436,-1.770703
13.800000,99.135027,12.560813,0.024951,1.293608,-10.108505,0.006131,-0.027466,0.119688,-1.783529
13.900000,99.282870,11.562979,0.029109,1.309902,-10.261855,0.058366,-0.023446,0.131293,-1.821388
14.000000,99.385545,10.540886,0.026870,1.068877,-10.237229,0.006640,-0.031738,0.124622,-1.815479
14.100000,99.494314,9.524676,0.036393,0.982164,-10.311915,0.037585,-0.033057,0.128089,-1.832189
14.200000,99.605895,8.456462,0.035178,0.962525,-10.349585,0.065737,-0.034783,0.135188,-1.856594
14.300000,99.706213,7.456067,0.028067,0.695553,-10.287252,0.031350,-0.044412,0.128949,-1.853372
14.400000,99.766886,6.436836,0.059270,0.589726,-10.338657,0.145322,-0.047588,0.131132,-1.866208
14.500000,99.846733,5.409501,0.056199,0.533197,-10.445173,0.022328,-0.047711,0.133752,-1.881494
14.600000,99.901406,4.331267,0.052393,0.438794,-10.408317,-0.071350,-0.054268,0.132717,-1.883257
14.700000,99.976117,3.295970,0.072340,0.465393,-10.462616,0.003680,-0.053924,0.142042,-1.913749
14.800000,99.985158,2.255043,0.081020,0.241550,-10.486019,0.021339,-0.060443,0.134748,-1.901398
14.900000,100.005406,1.218260,0.078034,0.014674,-10.437318,0.045851,-0.070948,0.125293,-1.880122
15.000000,99.993049,0.174208,0.089343,0.045463,-10.394275,-0.078875,-0.074569,0.131022,-1.898052
15.100000,99.996964,-0.868389,0.099225,-0.030031,-10.459736,0.044938,-0.075977,0.133051,-1.910688
15.200000,99.983623,-1.929208,0.096375,-0.113535,-10.562883,0.038697,-0.077608,0.132494,-1.917350
15.300000,99.939629,-2.983522,0.085450,-0.309267,-10.511330,-0.044698,-0.088107,0.122434,-1.891782
15.400000,99.887164,-4.034154,0.096680,-0.443755,-10.474201,-0.039848,-0.097164,0.114574,-1.871206
15.500000,99.851377,-5.082933,0.097472,-0.465118,-10.410208,-0.003144,-0.105118,0.114222,-1.866986
15.600000,99.800890,-6.139414,0.095160,-0.615916,-10.538794,-0.063280,-0.105874,0.109201,-1.866456
15.700000,99.710750,-7.184704,0.079892,-0.811606,-10.453020,-0.078614,-0.117818,0.097140,-1.830006
15.800000,99.616990,-8.223553,0.039016,-0.861702,-10.379749,-0.085337,-0.127424,0.090710,-1.806337
15.900000,99.492003,-9.255392,0.040959,-1.040821,-10.315371,-0.034695,-0.138206,0.076776,-1.763285
16.000000,99.411559,-10.307125,0.055775,-1.052160,-10.337642,0.040579,-0.140751,0.076033,-1.767819
16.100000,99.291259,-11.307830,0.035577,-1.191339,-10.172186,-0.009088,-0.156054,0.059979,-1.706561
16.200000,99.174689,-12.325177,0.038532,-1.258231,-10.271154,0.003407,-0.155620,0.056619,-1.713302
16.300000,99.043724,-13.344735,0.030568,-1.369005,-10.216215,0.017521,-0.163244,0.045334,-1.679698
16.400000,98.886571,-14.362163,0.007311,-1.509053,-10.192845,0.077888,-0.169591,0.032959,-1.646603
16.500000,98.731729,-15.380692,0.019354,-1.590418,-10.086920,0.128929,-0.176832,0.024777,-1.620937
16.600000,98.565592,-16.406534,0.042953,-1.655785,-9.939104,0.014570,-0.185823,0.014512,-1.585243
16.700000,98.392241,-17.409006,0.062195,-1.718575,-9.944299,0.048180,-0.187599,0.008365,-1.577900
16.800000,98.241314,-18.385646,0.064307,-1.794033,-9.638538,0.230454,-0.201279,-0.005274,-1.518211
16.900000,98.038426,-19.377721,0.045881,-2.058771,-9.552108,0.054446,-0.207800,-0.022918,-1.463498
17.000000,97.824774,-20.357410,0.068115,-2.095287,-9.575535,-0.066386,-0.206431,-0.026454,-1.470354
17.100000,97.599829,-21.298179,0.098785,-2.161429,-9.364759,-0.003018,-0.213249,-0.035194,-1.441063
17.200000,97.348260,-22.202799,0.099838,-2.241048,-9.327464,-0.028799,-0.212953,-0.041841,-1.432528
17.300000,97.121934,-23.140585,0.113404,-2.438513,-9.266960,0.071307,-0.214301,-0.053849,-1.403157
17.400000,96.842864,-24.025276,0.139907,-2.602265,-9.171091,0.102590,-0.215900,-0.063858,-1.379526
17.500000,96.595635,-24.942110,0.141149,-2.612188,-9.079064,0.072320,-0.215586,-0.066644,-1.386377
17.600000,96.309239,-25.822442,0.122468,-2.611683,-8.838453,-0.066631,-0.220719,-0.069137,-1.386123
17.700000,96.013184,-26.722261,0.112801,-2.878618,-8.748471,-0.032535,-0.221383,-0.082462,-1.349819
17.800000,95.725626,-27.611918,0.144336,-2.983129,-8.761065,-0.034116,-0.217523,-0.087927,-1.350726
17.900000,95.420568,-28.465280,0.140271,-3.041957,-8.548415,-0.000776,-0.219893,-0.091967,-1.349234
18.000000,95.119455,-29.330733,0.138641,-3.125544,-8.366920,0.009737,-0.221311,-0.096759,-1.344482
18.100000,94.795028,-30.182497,0.132710,-3.221533,-8.400294,0.130996,-0.214689,-0.100361,-1.351127
18.200000,94.464017,-31.034423,0.138835,-3.336089,-8.198297,-0.079605,-0.218788,-0.105769,-1.344399
18.300000,94.112679,-31.867595,0.129787,-3.413017,-8.146074,0.054393,-0.214954,-0.108969,-1.352087
18.400000,93.775718,-32.657252,0.152331,-3.374706,-7.852422,0.142823,-0.217901,-0.107813,-1.374460
18.500000,93.391166,-33.452880,0.161774,-3.636142,-7.839297,-0.029471,-0.215322,-0.116019,-1.359796
18.600000,93.013350,-34.228642,0.167540,-3.719112,-7.670177,0.023302,-0.215280,-0.118862,-1.365905
18.700000,92.662589,-34.978095,0.171404,-3.812608,-7.346229,0.023517,-0.218842,-0.122436,-1.368494
18.800000,92.267902,-35.741514,0.214334,-4.000141,-7.307367,0.069390,-0.214432,-0.128348,-1.365557
18.900000,91.856829,-36.444966,0.215980,-3.964057,-7.058041,0.090208,-0.216206,-0.127682,-1.388045
19.000000,91.451900,-37.181902,0.219997,-4.171099,-7.087216,0.021837,-0.210636,-0.133187,-1.387184
19.100000,91.026048,-37.894792,0.190556,-4.402935,-6.849645,-0.114375,-0.212730,-0.138677,-1.385016
19.200000,90.586707,-38.553271,0.188606,-4.451545,-6.651757,0.042141,-0.211689,-0.140175,-1.401352
19.300000,90.127124,-39.198847,0.203182,-4.439138,-6.416542,0.086399,-0.212785,-0.140738,-1.423211
19.400000,89.653001,-39.833069,0.207183,-4.663117,-6.218919,0.011065,-0.213197,-0.145809,-1.425265
19.500000,89.177408,-40.448163,0.224603,-4.785265,-6.208660,-0.077387,-0.208490,-0.148966,-1.437005
19.600000,88.692767,-41.054079,0.208954,-4.830368,-5.987293,-0.025683,-0.208597,-0.150441,-1.455554
19.700000,88.224105,-41.644340,0.201415,-4.780142,-5.800760,0.061081,-0.207850,-0.149218,-1.485481
19.800000,87.730109,-42.206079,0.195114,-4.945402,-5.645479,-0.066416,-0.207647,-0.153754,-1.496480
19.900000,87.237013,-42.786589,0.212612,-5.062638,-5.440923,-0.032612,-0.207765,-0.156185,-1.515061
20.000000,86.748584,-43.322651,0.240958,-5.082121,-5.165658,-0.006789,-0.209397,-0.156895,-1.539475
20.100000,86.226730,-43.841143,0.268353,-5.150399,-5.024364,0.072626,-0.207512,-0.158934,-1.561350
20.200000,85.670492,-44.297797,0.280736,-5.377953,-4.718977,0.034534,-0.210394,-0.164338,-1.571400
20.300000,85.172763,-44.745737,0.303693,-5.477696,-4.612516,0.032326,-0.207708,-0.167225,-1.591834
20.400000,84.576841,-45.204609,0.317662,-5.594221,-4.460641,0.046143,-0.206326,-0.170524,-1.612320
20.500000,83.994169,-45.615019,0.287355,-5.740679,-4.278997,0.024098,-0.206045,-0.174941,-1.630894
20.600000,83.417470,-46.049978,0.249206,-5.682294,-4.111944,-0.073059,-0.205976,-0.174460,-1.663393
20.700000,82.841125,-46.445907,0.251212,-5.852222,-3.904663,-0.010897,-0.206449,-0.179324,-1.683205
20.800000,82.241368,-46.819928,0.239053,-5.949235,-3.599547,0.009007,-0.209564,-0.182025,-1.706620
20.900000,81.657570,-47.189009,0.238151,-6.010896,-3.495764,0.002947,-0.207131,-0.184746,-1.733527
21.000000,81.044499,-47.515642,0.228549,-6.102183,-3.184890,-0.017974,-0.210938,-0.187188,-1.758857
21.100000,80.410353,-47.827888,0.243583,-6.207719,-3.067841,-0.149695,-0.209860,-0.191071,-1.784866
21.200000,79.779921,-48.151878,0.226398,-6.297485,-2.810258,-0.121665,-0.212819,-0.194409,-1.809296
21.300000,79.125000,-48.438566,0.202992,-6.352310,-2.593612,-0.175719,-0.214541,-0.197188,-1.836789
21.400000,78.484002,-48.720516,0.207626,-6.439000,-2.463015,0.000044,-0.212908,-0.201410,-1.865292
21.500000,77.822610,-48.968182,0.216469,-6.408304,-2.169475,0.007850,-0.217188,-0.201693,-1.893983
21.600000,77.165005,-49.185248,0.212742,-6.581232,-1.991603,-0.007335,-0.218643,-0.208129,-1.919834
21.700000,76.470863,-49.384155,0.239608,-6.734877,-1.810846,0.109888,-0.218697,-0.213608,-1.945905
21.800000,75.803586,-49.534124,0.241326,-6.755888,-1.556696,0.034339,-0.222076,-0.216490,-1.971339
21.900000,75.113699,-49.679796,0.255400,-6.817651,-1.278932,0.042419,-0.225449,-0.220223,-1.995291
22.000000,74.430972,-49.808348,0.268674,-6.955211,-1.001294,0.035206,-0.229601,-0.225603,-2.017873
22.100000,73.687721,-49.912789,0.273516,-7.044697,-0.920091,0.006840,-0.228641,-0.231476,-2.048310
22.200000,72.975528,-50.010915,0.261511,-7.003993,-0.695167,0.095538,-0.231047,-0.233280,-2.074701
22.300000,72.268505,-50.102034,0.251501,-7.132380,-0.575532,-0.040159,-0.231881,-0.239962,-2.102943
22.400000,71.532950,-50.149867,0.240925,-7.335933,-0.226741,-0.081946,-0.239111,-0.247529,-2.121749
22.500000,70.813028,-50.134736,0.226361,-7.320153,-0.098260,-0.033267,-0.240082,-0.251790,-2.150048
22.600000,70.065886,-50.134810,0.240721,-7.330098,0.233035,0.027029,-0.246366,-0.254576,-2.167833
22.700000,69.308231,-50.087898,0.255905,-7.530987,0.438397,-0.064660,-0.250506,-0.263924,-2.191281
22.800000,68.572276,-50.032987,0.224467,-7.523408,0.555427,-0.108335,-0.251562,-0.268382,-2.218320
22.900000,67.791805,-49.957649,0.209760,-7.541188,0.746272,-0.144417,-0.254700,-0.273021,-2.240152
23.000000,67.032248,-49.849055,0.210100,-7.589308,0.949596,-0.063458,-0.258921,-0.279468,-2.262099
23.100000,66.279654,-49.739539,0.208156,-7.584339,1.253985,-0.061561,-0.265276,-0.283210,-2.274125
23.200000,65.477575,-49.591959,0.227169,-7.803608,1.519954,0.064985,-0.271619,-0.295618,-2.293872
23.300000,64.662034,-49.416928,0.222431,-7.870925,1.725972,0.050072,-0.276136,-0.302925,-2.312913
23.400000,63.840213,-49.237510,0.205787,-8.007457,2.006547,0.054301,-0.282763,-0.312501,-2.326495
23.500000,63.027412,-49.033058,0.218719,-8.031550,2.221857,-0.032582,-0.288040,-0.318769,-2.340433
23.600000,62.216402,-48.792131,0.218863,-8.039838,2.284524,-0.041024,-0.289728,-0.326901,-2.367063
23.700000,61.364244,-48.532522,0.208501,-8.163134,2.427525,-0.083631,-0.294160,-0.338048,-2.390489
23.800000,60.555960,-48.282322,0.213447,-8.178155,2.747310,0.065829,-0.301705,-0.345045,-2.396476
23.900000,59.711276,-48.008930,0.198311,-8.318143,2.911014,-0.036674,-0.306951,-0.356549,-2.416303
24.000000,58.885705,-47.710456,0.190821,-8.324136,3.164974,0.031423,-0.313983,-0.364546,-2.424695
24.100000,58.046181,-47.392024,0.185893,-8.337990,3.276717,0.066783,-0.318500,-0.374369,-2.445684
24.200000,57.175352,-47.065567,0.204209,-8.435070,3.626925,0.128140,-0.328551,-0.384288,-2.446330
24.300000,56.302869,-46.700466,0.194693,-8.372519,3.708873,0.045589,-0.332570,-0.391671,-2.463110
24.400000,55.457117,-46.317384,0.196657,-8.515270,4.065344,0.015479,-0.342194,-0.403011,-2.463535
24.500000,54.531748,-45.908763,0.190539,-8.674237,4.109934,0.064013,-0.347727,-0.420025,-2.495833
24.600000,53.641817,-45.451191,0.188466,-8.685068,4.320629,0.026723,-0.355408,-0.430298,-2.502336
24.700000,52.737692,-44.991857,0.167533,-8.724786,4.547059,-0.042651,-0.363004,-0.440782,-2.506726
24.800000,51.841185,-44.530326,0.163333,-8.751849,4.723822,-0.015716,-0.370523,-0.453416,-2.516868
24.900000,50.955898,-44.036283,0.206715,-8.674526,5.084834,0.081782,-0.379722,-0.461483,-2.500757
25.000000,50.013371,-43.524264,0.207852,-8.888136,5.113667,0.032781,-0.387285,-0.481475,-2.533490
25.100000,49.109062,-42.994648,0.197891,-8.859289,5.328624,0.007026,-0.394506,-0.492327,-2.533576
25.200000,48.199544,-42.412259,0.168352,-8.935667,5.443921,0.044010,-0.402047,-0.508844,-2.549827
25.300000,47.275363,-41.839081,0.184363,-9.085835,5.570316,0.024768,-0.410882,-0.526729,-2.566430
25.400000,46.340353,-41.256777,0.168887,-9.070867,5.851824,-0.015261,-0.418902,-0.538253,-2.557990
25.500000,45.389094,-40.639651,0.203210,-9.002151,6.067927,-0.077834,-0.426121,-0.549561,-2.552126
25.600000,44.452102,-40.022029,0.187857,-9.149788,6.168966,-0.100130,-0.435443,-0.568238,-2.568507
25.700000,43.506904,-39.393257,0.181286,-9.088769,6.340468,-0.167723,-0.442700,-0.580648,-2.567673
25.800000,42.567085,-38.747063,0.190796,-9.199099,6.466055,-0.151438,-0.452330,-0.599570,-2.579674
25.900000,41.610218,-38.049847,0.154765,-9.203427,6.750658,-0.034362,-0.462362,-0.616697,-2.570400
26.000000,40.666431,-37.353873,0.158347,-9.365830,6.873772,-0.149709,-0.471827,-0.636024,-2.581161
26.100000,39.683477,-36.635357,0.125568,-9.323927,7.044900,-0.093442,-0.480823,-0.653164,-2.580252
26.200000,38.708596,-35.902640,0.132287,-9.359331,7.235316,-0.058468,-0.490240,-0.672717,-2.578561
26.300000,37.771463,-35.153044,0.135683,-9.399442,7.335323,-0.156299,-0.499003,-0.690896,-2.584281
26.400000,36.785587,-34.361673,0.093081,-9.364720,7.529304,-0.131291,-0.507467,-0.709226,-2.578192
26.500000,35.791390,-33.589422,0.081775,-9.367301,7.688277,-0.116526,-0.516168,-0.728748,-2.575759
26.600000,34.821613,-32.805172,0.088084,-9.487961,7.744793,-0.191350,-0.525600,-0.750218,-2.585680
26.700000,33.805756,-32.008673,0.074936,-9.471273,7.953777,-0.190962,-0.533982,-0.769499,-2.576244
26.800000,32.819277,-31.183721,0.065576,-9.415136,8.062456,-0.231219,-0.541959,-0.788757,-2.575497
26.900000,31.833304,-30.357103,0.050213,-9.581623,8.261735,-0.220459,-0.551622,-0.813078,-2.570961
27.000000,30.836723,-29.505336,0.025389,-9.512346,8.436530,-0.223066,-0.559288,-0.833165,-2.561799
27.100000,29.848265,-28.605060,0.012577,-9.511806,8.566552,-0.229444,-0.567512,-0.855113,-2.558064
27.200000,28.837701,-27.759949,0.007589,-9.618916,8.581400,-0.152412,-0.578530,-0.881917,-2.567389
27.300000,27.812503,-26.887610,-0.008675,-9.719895,8.674370,-0.217363,-0.587659,-0.905503,-2.567257
27.400000,26.801073,-26.033317,-0.012162,-9.675848,8.754605,-0.257053,-0.596158,-0.927746,-2.564901
27.500000,25.794893,-25.158858,-0.034010,-9.676671,8.867971,-0.278925,-0.604833,-0.951645,-2.559670
27.600000,24.780591,-24.234040,-0.037504,-9.774598,9.148023,-0.202236,-0.612760,-0.979366,-2.541706
27.700000,23.761923,-23.320833,-0.029287,-9.742408,9.166475,-0.241438,-0.621406,-1.003163,-2.543320
27.800000,22.747159,-22.388235,-0.034316,-9.719359,9.133620,-0.221477,-0.631138,-1.029244,-2.548692
27.900000,21.759090,-21.442016,-0.059621,-9.737182,9.330799,-0.247564,-0.637755,-1.055836,-2.533418
28.000000,20.747008,-20.492341,-0.076977,-9.775382,9.441916,-0.267270,-0.644959,-1.082172,-2.525693
28.100000,19.723391,-19.522919,-0.060893,-9.869471,9.521684,-0.304664,-0.653064,-1.109407,-2.520327
28.200000,18.705835,-18.530937,-0.049381,-9.658246,9.733518,-0.335694,-0.657350,-1.134146,-2.500509
28.300000,17.666646,-17.560116,-0.076919,-9.720679,9.700335,-0.243024,-0.666733,-1.165217,-2.502607
28.400000,16.635957,-16.585485,-0.054765,-9.948829,9.796926,-0.195874,-0.673927,-1.196929,-2.494296
28.500000,15.613567,-15.605460,-0.060182,-9.926600,9.824852,-0.339783,-0.680158,-1.221753,-2.489040
28.600000,14.579213,-14.615624,-0.057464,-9.984653,9.969856,-0.358733,-0.685119,-1.250485,-2.475108
28.700000,13.517769,-13.612796,-0.061343,-9.951412,10.049559,-0.350568,-0.690784,-1.279600,-2.465229
28.800000,12.500922,-12.589245,-0.080387,-9.861754,10.018502,-0.441296,-0.697519,-1.305842,-2.462215
28.900000,11.434597,-11.598152,-0.084576,-9.889521,10.088551,-0.373370,-0.702803,-1.337871,-2.451566
29.000000,10.375015,-10.583227,-0.062700,-9.964080,10.168912,-0.370339,-0.707595,-1.368469,-2.440202
29.100000,9.357269,-9.555245,-0.051890,-9.857259,10.220565,-0.481588,-0.711438,-1.395379,-2.429895
29.200000,8.311674,-8.508301,-0.054283,-9.806575,10.288714,-0.377687,-0.715519,-1.428629,-2.417607
29.300000,7.281737,-7.461863,-0.042272,-9.893938,10.381213,-0.384286,-0.718637,-1.459704,-2.404264
29.400000,6.260690,-6.416143,-0.019102,-9.843157,10.201557,-0.320508,-0.727052,-1.491702,-2.406600
29.500000,5.228059,-5.377481,-0.018929,-9.944933,10.257137,-0.489680,-0.730053,-1.518862,-2.395085
29.600000,4.206997,-4.312365,-0.014020,-9.733713,10.434010,-0.533088,-0.730112,-1.548956,-2.375077
29.700000,3.177381,-3.252915,-0.030572,-9.902613,10.484538,-0.553537,-0.732874,-1.580441,-2.362852
29.800000,2.126255,-2.199439,-0.028532,-9.915628,10.563014,-0.525652,-0.734440,-1.612470,-2.348607
29.900000,1.085092,-1.147999,-0.008033,-10.036066,10.549439,-0.504788,-0.737399,-1.644714,-2.338606
30.000000,0.066628,-0.095561,-0.000824,-9.995990,10.482487,-0.614391,-0.741513,-1.673793,-2.331433
30.100000,-0.992250,0.946271,-0.010282,-9.943157,10.393191,-0.539112,-0.746395,-1.707378,-2.324376
30.200000,-2.059616,1.999942,-0.010612,-9.983984,10.366170,-0.523133,-0.750085,-1.739804,-2.314071
30.300000,-3.083926,3.050521,-0.000807,-9.865361,10.473808,-0.494463,-0.750956,-1.773107,-2.297228
30.400000,-4.111205,4.108028,-0.000232,-9.892000,10.488415,-0.456548,-0.753168,-1.805897,-2.284682
30.500000,-5.125715,5.170417,-0.017407,-9.874415,10.585136,-0.598493,-0.753252,-1.834207,-2.268439
30.600000,-6.204417,6.237794,-0.044106,-10.018310,10.451886,-0.643828,-0.759208,-1.864292,-2.262356
30.700000,-7.253982,7.270022,-0.038019,-9.886921,10.341992,-0.673033,-0.764979,-1.895892,-2.254572
30.800000,-8.288593,8.330831,-0.032867,-9.819562,10.363770,-0.591826,-0.768032,-1.929804,-2.240584
30.900000,-9.319863,9.369348,-0.048061,-9.811361,10.381567,-0.687487,-0.770955,-1.959185,-2.227076
31.000000,-10.354091,10.389743,-0.058424,-9.861881,10.242451,-0.685463,-0.777995,-1.990632,-2.219789
31.100000,-11.416482,11.410980,-0.054818,-9.870464,10.210821,-0.697332,-0.782447,-2.022217,-2.207689
31.200000,-12.422794,12.407039,-0.081429,-9.890758,10.097183,-0.762037,-0.789529,-2.051485,-2.198986
31.300000,-13.475545,13.414587,-0.095162,-9.853333,10.078263,-0.670913,-0.794692,-2.085485,-2.185563
31.400000,-14.529589,14.415724,-0.107826,-9.825608,10.198969,-0.615130,-0.797454,-2.118020,-2.166502
31.500000,-15.536080,15.425249,-0.115170,-9.820594,10.114407,-0.699180,-0.805948,-2.147417,-2.155610
31.600000,-16.571731,16.449110,-0.118684,-9.794912,9.975061,-0.708658,-0.816000,-2.177798,-2.146028
31.700000,-17.584072,17.439580,-0.105734,-9.745373,9.910683,-0.727085,-0.824981,-2.208464,-2.133501
31.800000,-18.598875,18.407576,-0.096193,-9.856385,9.677895,-0.701292,-0.838621,-2.238337,-2.126835
31.900000,-19.642833,19.374524,-0.117566,-9.922419,9.630858,-0.690946,-0.848985,-2.268646,-2.113017
32.000000,-20.636995,20.325746,-0.104757,-9.784192,9.512513,-0.685782,-0.861658,-2.300663,-2.100432
32.100000,-21.656945,21.301186,-0.146887,-9.764347,9.456985,-0.790326,-0.873127,-2.328478,-2.086305
32.200000,-22.644780,22.232150,-0.133474,-9.649396,9.219773,-0.709793,-0.891189,-2.361157,-2.076177
32.300000,-23.664673,23.171380,-0.132760,-9.643838,9.069849,-0.701010,-0.907795,-2.391263,-2.064042
32.400000,-24.680676,24.071243,-0.130384,-9.645239,9.003581,-0.681046,-0.923413,-2.421428,-2.048950
32.500000,-25.671816,24.966900,-0.120101,-9.580463,8.941946,-0.642116,-0.939493,-2.452618,-2.032718
32.600000,-26.669754,25.875301,-0.130843,-9.598407,8.869728,-0.795773,-0.954192,-2.478411,-2.017655
32.700000,-27.665753,26.730946,-0.146819,-9.694251,8.760705,-0.817542,-0.971571,-2.506385,-2.003992
32.800000,-28.648493,27.594779,-0.125737,-9.542629,8.585598,-0.706986,-0.991929,-2.539672,-1.988703
32.900000,-29.637969,28.451062,-0.136431,-9.491569,8.481793,-0.720603,-1.010767,-2.569334,-1.972073
33.000000,-30.603071,29.294394,-0.150554,-9.528304,8.286697,-0.686710,-1.032751,-2.599329,-1.958324
33.100000,-31.594931,30.141741,-0.161778,-9.478702,8.149845,-0.765743,-1.052509,-2.627613,-1.942347
33.200000,-32.602210,30.962958,-0.166064,-9.460527,8.192354,-0.720187,-1.071899,-2.658710,-1.920362
33.300000,-33.567349,31.761540,-0.184481,-9.419282,7.971980,-0.740433,-1.094222,-2.688197,-1.905166
33.400000,-34.544081,32.602781,-0.180682,-9.312237,7.896324,-0.805576,-1.114843,-2.717698,-1.885609
33.500000,-35.514187,33.380067,-0.177563,-9.275536,7.701236,-0.679233,-1.138973,-2.751151,-1.869124
33.600000,-36.488203,34.126140,-0.171920,-9.287728,7.609187,-0.595008,-1.160341,-2.783519,-1.850127
33.700000,-37.439071,34.861953,-0.191673,-9.156106,7.350051,-0.673510,-1.179996,-2.812902,-1.834774
33.800000,-38.425722,35.604742,-0.183558,-9.080774,7.233988,-0.626000,-1.199999,-2.845465,-1.814922
33.900000,-39.390547,36.332659,-0.193793,-9.155115,7.136546,-0.577189,-1.219546,-2.877736,-1.795915
34.000000,-40.329431,37.068496,-0.228950,-9.078067,7.000402,-0.592139,-1.238198,-2.909007,-1.776489
34.100000,-41.284210,37.740158,-0.218085,-9.159964,6.826722,-0.689334,-1.253953,-2.938641,-1.760263
34.200000,-42.218001,38.411105,-0.222943,-8.999098,6.547401,-0.658226,-1.271075,-2.972169,-1.743642
34.300000,-43.172240,39.085694,-0.226084,-8.919135,6.439688,-0.649440,-1.286370,-3.004912,-1.722932
34.400000,-44.111235,39.740331,-0.221478,-8.899846,6.337237,-0.603690,-1.300749,-3.039434,-1.702383
34.500000,-45.042934,40.369765,-0.235509,-8.810633,6.145502,-0.613819,-1.312562,-3.073497,-1.683714
34.600000,-45.942111,40.961319,-0.241452,-8.746675,5.884459,-0.636097,-1.321606,-3.107385,-1.667560
34.700000,-46.871802,41.544102,-0.229529,-8.732110,5.810880,-0.563005,-1.332675,-3.143170,-1.644765
34.800000,-47.775107,42.119412,-0.219011,-8.661541,5.733313,-0.456702,-1.342030,-3.180246,-1.621746
34.900000,-48.678457,42.691298,-0.211880,-8.661996,5.456408,-0.413981,-1.346105,-3.217524,-1.605665
35.000000,-49.583446,43.211163,-0.191223,-8.633070,5.253839,-0.366566,-1.348875,-3.255333,-1.586804
35.100000,-50.491394,43.682050,-0.208035,-8.558065,4.932710,-0.501351,-1.347053,-3.288976,-1.571841
35.200000,-51.383312,44.194941,-0.197561,-8.507307,4.766916,-0.405965,-1.346946,-3.328191,-1.550426
35.300000,-52.297001,44.644852,-0.208937,-8.500479,4.591474,-0.524464,-1.345407,-3.362749,-1.529940
35.400000,-53.194331,45.094967,-0.209962,-8.345472,4.486584,-0.366166,-1.342575,-3.404693,-1.505327
35.500000,-54.047821,45.537233,-0.205190,-8.231925,4.279868,-0.414782,-1.334493,-3.441475,-1.485159
35.600000,-54.909862,45.982098,-0.214146,-8.195822,4.113267,-0.447571,-1.325868,-3.479461,-1.462670
35.700000,-55.765138,46.385126,-0.218798,-8.113576,3.974772,-0.393299,-1.315506,-3.520075,-1.438154
35.800000,-56.644437,46.810780,-0.192338,-8.117993,3.926366,-0.324688,-1.305158,-3.560542,-1.410551
35.900000,-57.500985,47.140583,-0.186295,-8.079616,3.610760,-0.454413,-1.289688,-3.596651,-1.391289
36.000000,-58.333421,47.470591,-0.173210,-8.034307,3.266834,-0.449776,-1.269720,-3.636660,-1.371812
36.100000,-59.185372,47.748908,-0.159897,-7.802552,3.048699,-0.516262,-1.253319,-3.673963,-1.348254
36.200000,-60.022753,48.041177,-0.169681,-7.889994,2.974813,-0.483283,-1.236277,-3.715040,-1.318320
36.300000,-60.854686,48.343394,-0.231304,-7.795030,2.815863,-0.544716,-1.218434,-3.753130,-1.291196
36.400000,-61.662785,48.582446,-0.219415,-7.746868,2.628513,-0.468558,-1.196303,-3.794654,-1.263359
36.500000,-62.486362,48.848268,-0.224814,-7.728745,2.375173,-0.492513,-1.172786,-3.833734,-1.237649
36.600000,-63.292054,49.049335,-0.211375,-7.599035,2.090332,-0.493917,-1.147807,-3.873250,-1.211959
36.700000,-64.088982,49.241130,-0.216687,-7.463121,1.938597,-0.487803,-1.124013,-3.912433,-1.181807
36.800000,-64.907661,49.418519,-0.193343,-7.476350,1.769630,-0.477846,-1.098452,-3.951997,-1.150438
36.900000,-65.725510,49.556648,-0.207740,-7.483228,1.524895,-0.359007,-1.068382,-3.994751,-1.120390
37.000000,-66.503749,49.672599,-0.199351,-7.387710,1.267889,-0.393733,-1.042197,-4.032501,-1.091024
37.100000,-67.301395,49.769286,-0.219670,-7.446675,1.144989,-0.565668,-1.019969,-4.066816,-1.056323
37.200000,-68.066185,49.838593,-0.238872,-7.328615,0.968878,-0.639029,-0.993490,-4.102928,-1.023569
37.300000,-68.833334,49.916124,-0.224734,-7.119606,0.801067,-0.587893,-0.962945,-4.141905,-0.990241
37.400000,-69.590313,49.951525,-0.235141,-7.006311,0.444922,-0.530489,-0.932074,-4.180772,-0.960401
37.500000,-70.333691,49.973029,-0.229414,-7.041724,0.247663,-0.527145,-0.903702,-4.218191,-0.924584
37.600000,-71.071746,49.935684,-0.218001,-6.829656,0.129908,-0.528141,-0.874493,-4.255174,-0.888891
37.700000,-71.804129,49.918560,-0.225866,-6.765576,-0.049239,-0.424666,-0.841233,-4.294217,-0.852245
37.800000,-72.534025,49.872781,-0.231235,-6.707150,-0.355316,-0.521016,-0.813106,-4.328399,-0.819291
37.900000,-73.232993,49.821747,-0.209996,-6.618888,-0.453215,-0.571944,-0.785120,-4.363440,-0.779682
38.000000,-73.951051,49.741226,-0.195820,-6.522199,-0.708254,-0.458194,-0.749835,-4.401182,-0.743847
38.100000,-74.669820,49.610984,-0.232734,-6.619311,-0.958171,-0.598837,-0.723957,-4.433356,-0.705676
38.200000,-75.343018,49.472575,-0.209249,-6.471743,-1.280033,-0.470525,-0.688984,-4.470978,-0.671582
38.300000,-76.024296,49.348011,-0.204799,-6.367917,-1.284983,-0.464407,-0.659007,-4.506038,-0.628707
38.400000,-76.702427,49.157103,-0.212458,-6.296984,-1.589457,-0.538225,-0.629946,-4.538411,-0.593577
38.500000,-77.410525,48.951158,-0.239640,-6.236506,-1.759967,-0.540708,-0.599084,-4.572168,-0.554546
38.600000,-78.069146,48.723250,-0.238771,-6.051396,-2.094027,-0.542545,-0.568311,-4.605239,-0.520932
38.700000,-78.702616,48.494925,-0.233974,-5.906368,-2.170192,-0.576651,-0.539143,-4.637142,-0.480990
38.800000,-79.318996,48.212106,-0.244250,-5.902978,-2.421845,-0.597366,-0.507708,-4.669707,-0.442866
38.900000,-79.960689,47.920014,-0.262375,-5.881765,-2.624547,-0.539650,-0.474651,-4.703199,-0.404116
39.000000,-80.585307,47.600188,-0.256091,-5.751773,-2.924870,-0.493561,-0.441956,-4.736113,-0.369568
39.100000,-81.204211,47.239351,-0.247872,-5.748737,-3.226044,-0.387952,-0.407772,-4.769762,-0.333498
39.200000,-81.820685,46.909050,-0.243008,-5.642864,-3.390312,-0.411031,-0.378740,-4.800394,-0.296246
39.300000,-82.427516,46.508534,-0.264077,-5.712730,-3.619318,-0.390082,-0.347802,-4.832312,-0.258228
39.400000,-83.020491,46.101371,-0.256827,-5.512718,-3.682458,-0.382618,-0.318681,-4.862870,-0.220469
39.500000,-83.590580,45.706394,-0.260869,-5.343736,-3.951550,-0.456894,-0.289069,-4.891209,-0.187758
39.600000,-84.146332,45.283511,-0.241838,-5.213495,-4.124502,-0.463305,-0.260752,-4.921037,-0.152521
39.700000,-84.705835,44.809026,-0.246354,-5.171173,-4.385317,-0.420991,-0.229170,-4.951828,-0.118659
39.800000,-85.248916,44.356753,-0.220304,-5.056234,-4.549577,-0.352525,-0.199009,-4.982454,-0.084152
39.900000,-85.755998,43.840426,-0.207580,-5.008118,-4.787307,-0.295236,-0.166815,-5.011978,-0.051031
40.000000,-86.281941,43.349696,-0.185518,-4.887028,-4.966489,-0.320381,-0.137823,-5.039678,-0.018092
40.100000,-86.814175,42.837345,-0.195005,-4.859207,-4.979934,-0.321951,-0.112916,-5.069185,0.019114
40.200000,-87.324671,42.295252,-0.201931,-4.677915,-5.299447,-0.274683,-0.078959,-5.096118,0.046983
40.300000,-87.855978,41.741077,-0.174919,-4.631338,-5.453987,-0.162163,-0.048917,-5.125509,0.080071
40.400000,-88.311623,41.143137,-0.175107,-4.416479,-5.598593,-0.278993,-0.024314,-5.149357,0.109799
40.500000,-88.779226,40.518589,-0.176265,-4.433699,-5.897216,-0.378055,0.003918,-5.175553,0.139145
40.600000,-89.214756,39.921267,-0.158919,-4.253096,-6.109688,-0.373605,0.032537,-5.200387,0.167210
40.700000,-89.657808,39.287565,-0.164020,-4.176056,-6.122814,-0.294504,0.055604,-5.228224,0.199770
40.800000,-90.135637,38.637411,-0.181732,-4.239633,-6.356923,-0.271158,0.084434,-5.255747,0.229627
40.900000,-90.556377,37.983101,-0.191700,-4.033362,-6.497094,-0.297568,0.108056,-5.279494,0.257232
41.000000,-90.985834,37.296354,-0.207809,-3.961746,-6.685219,-0.252108,0.132887,-5.305751,0.285082
41.100000,-91.409959,36.575572,-0.229161,-3.905736,-6.894229,-0.306649,0.156129,-5.330311,0.312172
41.200000,-91.817897,35.850885,-0.242907,-3.786000,-7.081603,-0.266805,0.181076,-5.355283,0.338503
41.300000,-92.223949,35.116162,-0.223035,-3.712597,-7.203475,-0.302845,0.200903,-5.379664,0.365802
41.400000,-92.621656,34.376996,-0.236629,-3.598603,-7.338084,-0.273380,0.220375,-5.404915,0.392006
41.500000,-92.974317,33.637323,-0.194612,-3.475915,-7.534375,-0.168429,0.242176,-5.429384,0.417007
41.600000,-93.361876,32.865489,-0.200866,-3.477394,-7.745362,-0.212761,0.262202,-5.453888,0.442011
41.700000,-93.749550,32.063503,-0.219692,-3.356744,-7.889701,-0.232700,0.279795,-5.477066,0.466840
41.800000,-94.088591,31.246417,-0.227644,-3.287608,-8.041584,-0.250389,0.296689,-5.501132,0.491241
41.900000,-94.439604,30.398752,-0.215000,-3.244095,-8.202785,-0.161652,0.314497,-5.526372,0.515315
42.000000,-94.752530,29.585710,-0.205221,-3.080409,-8.237190,-0.186099,0.325874,-5.548406,0.539123
42.100000,-95.062779,28.738037,-0.207404,-2.994577,-8.345437,-0.262780,0.338579,-5.570988,0.562471
42.200000,-95.397240,27.881859,-0.205855,-2.877898,-8.596760,-0.267261,0.358009,-5.591627,0.584701
42.300000,-95.697449,27.016373,-0.198508,-2.814879,-8.695424,-0.304853,0.369988,-5.614450,0.607540
42.400000,-95.974547,26.105139,-0.193215,-2.595663,-8.849790,-0.306973,0.384974,-5.634054,0.628740
42.500000,-96.256439,25.202964,-0.196363,-2.558440,-8.909712,-0.130415,0.394800,-5.660418,0.651195
42.600000,-96.553818,24.268947,-0.174798,-2.472084,-9.137716,-0.136612,0.409825,-5.681587,0.672339
42.700000,-96.819848,23.345216,-0.190350,-2.390075,-9.105012,-0.179585,0.412544,-5.704509,0.693883
42.800000,-97.078203,22.384292,-0.209885,-2.253416,-9.271342,-0.288399,0.423684,-5.724075,0.714301
42.900000,-97.325227,21.420069,-0.235999,-2.054834,-9.423718,-0.114264,0.435437,-5.743925,0.734408
43.000000,-97.595530,20.494015,-0.219704,-2.073170,-9.485840,-0.143441,0.440145,-5.768187,0.754546
43.100000,-97.829754,19.536192,-0.176823,-1.999974,-9.587703,-0.064407,0.445999,-5.790967,0.773985
43.200000,-98.029860,18.565721,-0.163651,-1.914137,-9.681925,-0.148701,0.452653,-5.811521,0.793374
43.300000,-98.222389,17.580013,-0.181184,-1.880304,-9.765327,-0.172396,0.456595,-5.833483,0.812103
43.400000,-98.430129,16.563039,-0.154771,-1.829259,-9.820578,-0.075548,0.459751,-5.856263,0.830714
43.500000,-98.580291,15.560321,-0.122182,-1.581796,-9.842103,-0.048507,0.461827,-5.873662,0.850011
43.600000,-98.742648,14.566200,-0.107968,-1.533848,-10.024272,-0.069137,0.469083,-5.894307,0.868293
43.700000,-98.876035,13.575235,-0.122723,-1.304520,-10.071584,-0.216311,0.472393,-5.910488,0.887395
43.800000,-98.997864,12.580940,-0.115784,-1.339584,-10.000830,-0.210323,0.468583,-5.934554,0.904045
43.900000,-99.138665,11.571710,-0.140697,-1.100366,-10.159546,-0.127814,0.474711,-5.950795,0.922939
44.000000,-99.271959,10.564315,-0.153370,-1.020577,-10.227816,-0.097767,0.475051,-5.971366,0.940265
44.100000,-99.397336,9.544935,-0.139705,-0.876473,-10.190088,-0.125011,0.471325,-5.990293,0.957519
44.200000,-99.495762,8.523213,-0.157770,-0.828665,-10.287640,-0.137610,0.471821,-6.010650,0.973926
44.300000,-99.572633,7.497894,-0.141536,-0.811635,-10.318719,-0.202938,0.470055,-6.030903,0.990561
44.400000,-99.672650,6.455797,-0.137773,-0.636960,-10.450759,-0.048441,0.470604,-6.048636,1.007921
44.500000,-99.740915,5.432526,-0.145352,-0.518099,-10.435789,-0.115819,0.466942,-6.066860,1.024899
44.600000,-99.790640,4.406981,-0.165450,-0.435940,-10.479516,-0.196890,0.464406,-6.085391,1.041503
44.700000,-99.824287,3.356548,-0.147747,-0.193546,-10.512680,-0.140669,0.462034,-6.100022,1.059903
44.800000,-99.853684,2.335109,-0.144496,-0.188975,-10.450785,-0.101377,0.453885,-6.121323,1.074325
44.900000,-99.849006,1.263694,-0.119878,-0.056933,-10.570332,-0.146252,0.452927,-6.138823,1.091516
45.000000,-99.853000,0.214890,-0.124761,-0.125400,-10.583872,-0.134111,0.446575,-6.160150,1.105577
45.100000,-99.855389,-0.843224,-0.118902,-0.025390,-10.568728,-0.153758,0.440155,-6.177238,1.121660
45.200000,-99.866197,-1.888615,-0.129041,0.123981,-10.506065,-0.266771,0.433450,-6.192930,1.138621
45.300000,-99.837740,-2.946466,-0.129145,0.260269,-10.602365,-0.204628,0.429313,-6.209170,1.155446
45.400000,-99.816596,-3.969385,-0.132710,0.363023,-10.540088,-0.144557,0.419783,-6.226457,1.170886
45.500000,-99.735033,-5.009706,-0.108547,0.466899,-10.482860,-0.118628,0.410582,-6.242908,1.186749
45.600000,-99.676301,-6.087202,-0.114509,0.611246,-10.669363,-0.183654,0.409665,-6.257833,1.205288
45.700000,-99.619997,-7.143112,-0.109891,0.685599,-10.640015,-0.069556,0.399371,-6.274896,1.220226
45.800000,-99.563658,-8.183976,-0.128061,0.720166,-10.517356,-0.117041,0.387293,-6.292457,1.234817
45.900000,-99.479445,-9.205953,-0.142769,0.858971,-10.599018,-0.112257,0.381137,-6.306925,1.253196
46.000000,-99.399394,-10.241181,-0.143479,0.929401,-10.477772,-0.196410,0.368764,-6.323748,1.268439
46.100000,-99.302225,-11.242519,-0.151591,1.058635,-10.383420,-0.141872,0.356553,-6.338468,1.284906
46.200000,-99.183247,-12.250815,-0.156351,1.276845,-10.209745,-0.099024,0.342463,-6.352065,1.302797
46.300000,-99.067172,-13.251042,-0.167600,1.388985,-10.186151,-0.091305,0.332172,-6.366325,1.320058
46.400000,-98.905585,-14.214031,-0.178099,1.514561,-10.067744,-0.178086,0.320249,-6.380862,1.337327
46.500000,-98.749264,-15.208672,-0.184514,1.685504,-10.080116,-0.144368,0.310251,-6.393619,1.356665
46.600000,-98.589989,-16.206043,-0.186041,1.615413,-10.071998,-0.023081,0.296753,-6.410990,1.369137
46.700000,-98.404863,-17.168249,-0.174950,1.771603,-10.120120,0.035126,0.286442,-6.424073,1.388983
46.800000,-98.178561,-18.149812,-0.213176,1.925795,-10.098311,-0.217708,0.277988,-6.437276,1.409554
46.900000,-97.987950,-19.147610,-0.224994,1.965290,-10.010057,-0.219703,0.263045,-6.452713,1.425258
47.000000,-97.797808,-20.128435,-0.225952,2.194482,-9.879927,-0.160683,0.247095,-6.464016,1.446337
47.100000,-97.557277,-21.107969,-0.230851,2.330113,-9.878274,-0.157821,0.234678,-6.476143,1.466309
47.200000,-97.340594,-22.036824,-0.240900,2.381540,-9.702673,-0.188222,0.218033,-6.490245,1.482767
47.300000,-97.104450,-22.995030,-0.226275,2.396696,-9.633547,-0.086423,0.201602,-6.504434,1.498729
47.400000,-96.857156,-23.942205,-0.237093,2.542707,-9.439885,-0.159361,0.185023,-6.516318,1.518076
47.500000,-96.587564,-24.843658,-0.247123,2.605789,-9.257306,-0.217026,0.167305,-6.529888,1.535245
47.600000,-96.348312,-25.759473,-0.243488,2.753294,-9.238659,-0.200013,0.152940,-6.541550,1.557119
47.700000,-96.048548,-26.678921,-0.227991,2.770597,-9.167397,-0.159252,0.135104,-6.555023,1.574260
47.800000,-95.743916,-27.560795,-0.216332,2.932058,-9.035544,-0.111256,0.116724,-6.565821,1.596290
47.900000,-95.427477,-28.431530,-0.216963,3.140206,-8.906753,-0.071769,0.098409,-6.576289,1.620060
48.000000,-95.111522,-29.330640,-0.182882,3.132973,-8.896230,-0.070366,0.082491,-6.589615,1.638606
48.100000,-94.785926,-30.171085,-0.188430,3.296235,-8.683935,-0.146872,0.063454,-6.601053,1.661794
48.200000,-94.457510,-30.985682,-0.180696,3.374590,-8.652555,-0.028325,0.045183,-6.613188,1.683894
48.300000,-94.114468,-31.798600,-0.172706,3.481112,-8.528925,-0.113737,0.028163,-6.625429,1.707888
48.400000,-93.723458,-32.598286,-0.151565,3.619610,-8.357328,-0.175501,0.009758,-6.637320,1.732608
48.500000,-93.363166,-33.387320,-0.172182,3.584234,-8.114183,-0.226749,-0.010763,-6.650883,1.750587
48.600000,-92.984488,-34.148280,-0.156664,3.833558,-7.988726,-0.161287,-0.030876,-6.661267,1.780914
48.700000,-92.622840,-34.946298,-0.158881,3.944877,-7.937285,-0.162811,-0.049611,-6.673700,1.808003
48.800000,-92.225929,-35.697104,-0.139692,4.014973,-7.728303,-0.057837,-0.073566,-6.685705,1.832161
48.900000,-91.809357,-36.422308,-0.127008,4.070186,-7.584807,-0.161107,-0.092485,-6.698912,1.857482
49.000000,-91.403120,-37.115893,-0.146674,4.060610,-7.390408,-0.286602,-0.111806,-6.712563,1.881231
49.100000,-90.977632,-37.826945,-0.168053,4.285317,-7.317591,-0.288592,-0.131526,-6.724860,1.915424
49.200000,-90.558394,-38.523411,-0.176702,4.327294,-7.195332,-0.247534,-0.152980,-6.738134,1.943300
49.300000,-90.080608,-39.190566,-0.184831,4.593947,-6.895659,-0.231737,-0.177599,-6.750262,1.979270
49.400000,-89.641636,-39.824441,-0.170675,4.602382,-6.659497,-0.136273,-0.203064,-6.764053,2.005985
49.500000,-89.171965,-40.433839,-0.189721,4.608041,-6.589361,-0.258430,-0.221868,-6.777719,2.035340
49.600000,-88.676030,-41.013801,-0.185622,4.729395,-6.305922,-0.265282,-0.246288,-6.791935,2.068455
49.700000,-88.192009,-41.601455,-0.211892,4.759171,-6.296449,-0.361786,-0.265393,-6.806902,2.100844
49.800000,-87.697659,-42.149610,-0.227714,4.881854,-5.972955,-0.392149,-0.290217,-6.822196,2.136546
49.900000,-87.179492,-42.696026,-0.225897,4.978308,-5.890013,-0.344732,-0.313957,-6.837650,2.173112
50.000000,-86.635546,-43.230033,-0.221531,5.132666,-5.716950,-0.303332,-0.338207,-6.853971,2.212989
50.100000,-86.126026,-43.749550,-0.222759,5.196466,-5.591113,-0.280888,-0.362143,-6.870824,2.249877
50.200000,-85.615528,-44.256818,-0.229404,5.394716,-5.295680,-0.437926,-0.385044,-6.888385,2.294440
50.300000,-85.080207,-44.737798,-0.255442,5.410864,-5.194215,-0.433936,-0.408472,-6.906812,2.331673
50.400000,-84.505913,-45.185749,-0.264242,5.590894,-5.020717,-0.352034,-0.434690,-6.927112,2.378342
50.500000,-83.945497,-45.619973,-0.277556,5.632709,-4.886815,-0.216267,-0.461526,-6.947783,2.419898
50.600000,-83.351895,-46.057150,-0.270006,5.748824,-4.710138,-0.198048,-0.486996,-6.969813,2.465586
50.700000,-82.785889,-46.458160,-0.251774,5.785034,-4.421303,-0.269302,-0.510833,-6.992399,2.509367
50.800000,-82.189580,-46.850647,-0.255311,5.923484,-4.251373,-0.242473,-0.536012,-7.015896,2.558271
50.900000,-81.605632,-47.191184,-0.259249,6.024921,-4.019355,-0.279660,-0.560054,-7.040747,2.606617
51.000000,-81.022682,-47.539822,-0.265281,6.098109,-3.825299,-0.292693,-0.584214,-7.066189,2.654549
51.100000,-80.414635,-47.870633,-0.257859,6.208460,-3.669907,-0.309879,-0.607577,-7.093385,2.704537
51.200000,-79.826051,-48.177020,-0.255533,6.312421,-3.421456,-0.357798,-0.630780,-7.122998,2.757203
51.300000,-79.213189,-48.419531,-0.245831,6.369435,-3.193695,-0.500401,-0.651589,-7.151126,2.807795
51.400000,-78.587447,-48.687033,-0.257854,6.526334,-2.923327,-0.459359,-0.675512,-7.184245,2.864278
51.500000,-77.913128,-48.928374,-0.259339,6.647769,-2.792682,-0.398809,-0.698839,-7.217822,2.917792
51.600000,-77.271211,-49.161528,-0.257637,6.732589,-2.540055,-0.433725,-0.720757,-7.252286,2.972019
51.700000,-76.580300,-49.346778,-0.247566,6.873462,-2.241398,-0.454246,-0.742160,-7.289528,3.029970
51.800000,-75.903220,-49.514888,-0.237577,6.950239,-2.054466,-0.381590,-0.764241,-7.328004,3.084225
51.900000,-75.220879,-49.672148,-0.249952,7.045834,-1.900624,-0.370494,-0.784535,-7.366445,3.138652
52.000000,-74.553406,-49.812204,-0.253069,7.202696,-1.634510,-0.554143,-0.801024,-7.403601,-3.086961
52.100000,-73.875753,-49.921887,-0.293758,7.177211,-1.430450,-0.589353,-0.819046,-7.442245,-3.036260
52.200000,-73.144088,-49.959437,-0.324904,7.351958,-1.064596,-0.571608,-0.837252,-7.487123,-2.975102
52.300000,-72.405867,-50.005785,-0.306859,7.550786,-0.789132,-0.474078,-0.855400,-7.535239,-2.914289
52.400000,-71.669008,-50.052003,-0.296930,7.601460,-0.647463,-0.491240,-0.871487,-7.578777,-2.862313
52.500000,-70.930000,-50.066171,-0.313517,7.677526,-0.399089,-0.514800,-0.886318,-7.623495,-2.807327
52.600000,-70.158163,-50.047971,-0.281138,7.756680,-0.341597,-0.573309,-0.899726,-7.666211,-2.758748
52.700000,-69.418067,-50.011997,-0.263945,7.753001,-0.039159,-0.509758,-0.913318,-7.714757,-2.704944
52.800000,-68.666648,-49.989313,-0.290936,7.759402,0.190450,-0.614470,-0.924243,-7.758987,-2.654534
52.900000,-67.896188,-49.951304,-0.330706,7.981190,0.462824,-0.605739,-0.934614,-7.809754,-2.597769
53.000000,-67.116390,-49.832669,-0.326140,8.101035,0.738685,-0.534619,-0.944328,-7.862290,-2.543279
53.100000,-66.325606,-49.683925,-0.319917,8.305894,1.092325,-0.549187,-0.951867,-7.913890,-2.486730
53.200000,-65.519176,-49.538276,-0.328650,8.449664,1.353659,-0.588489,-0.958464,-7.963342,-2.434873
53.300000,-64.721505,-49.375074,-0.341317,8.389316,1.439931,-0.528258,-0.965906,-8.012437,-2.391772
53.400000,-63.890503,-49.154384,-0.334733,8.599994,1.687250,-0.537920,-0.970657,-8.064153,-2.340903
53.500000,-63.080089,-48.974003,-0.352373,8.389290,1.858627,-0.621615,-0.975291,-8.109232,-2.299813
53.600000,-62.280988,-48.733291,-0.347421,8.517503,2.161437,-0.597772,-0.978013,-8.161438,-2.250270
53.700000,-61.432132,-48.500189,-0.343090,8.711207,2.360525,-0.490682,-0.979871,-8.216324,-2.203958
53.800000,-60.620903,-48.238729,-0.339729,8.779629,2.697439,-0.585439,-0.979624,-8.264862,-2.157022
53.900000,-59.796143,-47.953224,-0.345009,8.830151,2.830908,-0.594739,-0.980174,-8.314335,-2.116414
54.000000,-58.960437,-47.638388,-0.347874,8.811940,3.089492,-0.620517,-0.978251,-8.363681,-2.073524
54.100000,-58.111098,-47.301815,-0.357831,8.791947,3.347379,-0.635148,-0.975287,-8.412922,-2.031618
54.200000,-57.295068,-46.938716,-0.327740,8.899645,3.499906,-0.559780,-0.971753,-8.465274,-1.992285
54.300000,-56.428618,-46.558190,-0.320795,8.990720,3.735614,-0.554580,-0.966621,-8.515439,-1.952454
54.400000,-55.542569,-46.162764,-0.305812,9.155076,4.016870,-0.646069,-0.960840,-8.562803,-1.912727
54.500000,-54.659254,-45.734974,-0.304619,9.131744,4.190660,-0.689840,-0.955322,-8.609511,-1.876562
54.600000,-53.781700,-45.271978,-0.302726,9.177547,4.341575,-0.616145,-0.948009,-8.659102,-1.841563
54.700000,-52.871594,-44.827897,-0.294456,9.251492,4.577161,-0.692547,-0.939646,-8.704931,-1.806051
54.800000,-51.996634,-44.346201,-0.308457,9.306987,4.824747,-0.749294,-0.930905,-8.750828,-1.770359
54.900000,-51.089863,-43.871939,-0.311009,9.430664,4.994727,-0.690490,-0.921675,-8.799016,-1.737626
55.000000,-50.181327,-43.361135,-0.319545,9.442426,5.228936,-0.692040,-0.911544,-8.844081,-1.704237
55.100000,-49.244535,-42.842485,-0.326163,9.513682,5.390716,-0.728844,-0.901729,-8.888291,-1.673666
55.200000,-48.320548,-42.260343,-0.328036,9.586244,5.635044,-0.717985,-0.890142,-8.933107,-1.641944
55.300000,-47.427270,-41.667500,-0.329497,9.464040,5.905212,-0.709281,-0.878473,-8.975391,-1.609129
55.400000,-46.520720,-41.057258,-0.341797,9.668821,6.023176,-0.762482,-0.868299,-9.018638,-1.582723
55.500000,-45.586838,-40.432963,-0.363883,9.599993,6.190135,-0.703419,-0.857178,-9.060103,-1.553980
55.600000,-44.625930,-39.811309,-0.352106,9.681663,6.416030,-0.694601,-0.845313,-9.102887,-1.525132
55.700000,-43.697404,-39.171000,-0.353431,9.740102,6.614208,-0.848105,-0.835644,-9.140850,-1.498066
55.800000,-42.760063,-38.516091,-0.325619,9.854781,6.852154,-0.748977,-0.822661,-9.184909,-1.470295
55.900000,-41.803414,-37.827405,-0.337070,9.815264,6.804407,-0.743590,-0.815870,-9.222999,-1.448665
56.000000,-40.838429,-37.141670,-0.328698,9.908513,7.042978,-0.762866,-0.804258,-9.263144,-1.422289
56.100000,-39.900345,-36.477844,-0.359552,9.979217,7.059999,-0.889718,-0.798116,-9.300009,-1.400577
56.200000,-38.920910,-35.737412,-0.354450,9.962028,7.375823,-0.811268,-0.785451,-9.339385,-1.372715
56.300000,-37.945025,-34.990477,-0.373799,10.001529,7.501229,-0.914268,-0.777626,-9.375497,-1.349919
56.400000,-36.987589,-34.235185,-0.380674,9.967418,7.730433,-0.841673,-0.766918,-9.413824,-1.324617
56.500000,-35.998189,-33.456081,-0.388654,10.120389,7.796201,-0.957373,-0.761189,-9.451386,-1.303739
56.600000,-35.004858,-32.649882,-0.387340,10.047850,7.896222,-0.907279,-0.754726,-9.487727,-1.281032
56.700000,-34.015094,-31.841333,-0.408377,10.129248,8.144811,-0.891908,-0.745311,-9.526223,-1.257174
56.800000,-33.007398,-31.039231,-0.377506,10.197073,8.242138,-0.857957,-0.739959,-9.563810,-1.235839
56.900000,-32.013795,-30.200287,-0.378112,10.296577,8.434957,-0.733750,-0.732826,-9.604236,-1.212698
57.000000,-31.000220,-29.361372,-0.381131,10.291312,8.522315,-0.882868,-0.729189,-9.637900,-1.191936
57.100000,-30.004304,-28.517186,-0.396502,10.324457,8.522127,-0.848649,-0.727457,-9.676295,-1.172246
57.200000,-28.975768,-27.630992,-0.392938,10.288543,8.682580,-0.876633,-0.723378,-9.711365,-1.150526
57.300000,-27.948350,-26.749891,-0.427701,10.354548,8.760658,-0.887888,-0.721715,-9.748880,-1.130281
57.400000,-26.956728,-25.862981,-0.444338,10.399006,8.915698,-0.815090,-0.718894,-9.787798,-1.108044
57.500000,-25.953499,-24.990742,-0.452202,10.270215,8.956231,-0.782009,-0.719082,-9.823443,-1.087791
57.600000,-24.919530,-24.099222,-0.459067,10.389012,8.984597,-0.838239,-0.720408,-9.861686,-1.067822
57.700000,-23.903722,-23.184029,-0.446446,10.388205,9.230174,-0.779332,-0.718057,-9.900367,-1.044548
57.800000,-22.933627,-22.204782,-0.418883,10.388206,9.481619,-0.764009,-0.716382,-9.938757,-1.020944
57.900000,-21.913618,-21.277854,-0.406096,10.465595,9.361866,-0.696119,-0.720230,-9.979087,-1.004144
58.000000,-20.923691,-20.372633,-0.393476,10.455907,9.449980,-0.783260,-0.721737,-10.015550,-0.984012
58.100000,-19.914811,-19.430146,-0.399589,10.510837,9.588345,-0.738002,-0.723739,-10.055741,-0.962082
58.200000,-18.893332,-18.441783,-0.378213,10.525033,9.679953,-0.779942,-0.726760,-10.093692,-0.941926
58.300000,-17.853990,-17.475043,-0.345932,10.598667,9.719744,-0.656995,-0.730812,-10.135800,-0.922053
58.400000,-16.821132,-16.497313,-0.367686,10.656643,9.760374,-0.710918,-0.734554,-10.175139,-0.903024
58.500000,-15.784035,-15.511616,-0.372168,10.684686,9.865042,-0.772747,-0.737487,-10.213848,-0.882854
58.600000,-14.745691,-14.537355,-0.387283,10.685993,9.881645,-0.669176,-0.741792,-10.256096,-0.864036
58.700000,-13.716915,-13.540513,-0.427949,10.741744,10.098113,-0.717266,-0.744177,-10.296781,-0.841084
58.800000,-12.701763,-12.539916,-0.403550,10.703647,10.106031,-0.643118,-0.748130,-10.338504,-0.822888
58.900000,-11.667559,-11.511593,-0.389589,10.736642,10.243973,-0.671980,-0.751937,-10.379038,-0.802123
59.000000,-10.626222,-10.473976,-0.391632,10.705849,10.344335,-0.713512,-0.755694,-10.419095,-0.782548
59.100000,-9.575072,-9.435053,-0.427631,10.897980,10.224892,-0.691229,-0.759910,-10.462775,-0.768693
59.200000,-8.537380,-8.406070,-0.435977,10.924958,10.207040,-0.549591,-0.763634,-10.508666,-0.752339
59.300000,-7.463471,-7.369345,-0.410346,10.938874,10.396085,-0.490548,-0.768369,-10.552493,-0.729777
59.400000,-6.427587,-6.349094,-0.393750,10.781641,10.338452,-0.493986,-0.771192,-10.594277,-0.715880
59.500000,-5.366585,-5.310316,-0.374403,10.885317,10.373260,-0.624091,-0.773963,-10.634276,-0.699767
59.600000,-4.349786,-4.253506,-0.372185,10.837989,10.469911,-0.573190,-0.777003,-10.678129,-0.681613
59.700000,-3.288005,-3.210011,-0.353913,10.916419,10.511283,-0.625757,-0.778987,-10.719944,-0.666016
59.800000,-2.207538,-2.144699,-0.404351,10.890954,10.444905,-0.637517,-0.778582,-10.762844,-0.654404
59.900000,-1.127181,-1.090391,-0.430971,10.929502,10.440458,-0.572971,-0.778283,-10.807892,-0.640213
60.000000,-0.054367,-0.047998,-0.429613,10.941230,10.478723,-0.540919,-0.778933,-10.851878,-0.624918
60.100000,1.014120,0.985244,-0.441425,10.961530,10.375449,-0.582668,-0.778174,-10.893971,-0.614393
60.200000,2.063785,2.017340,-0.423278,10.999850,10.453657,-0.536053,-0.778789,-10.938305,-0.598493
60.300000,3.116078,3.019967,-0.437143,10.947751,10.395027,-0.519979,-0.776565,-10.982176,-0.587132
60.400000,4.141765,4.086451,-0.415453,10.855165,10.464182,-0.492219,-0.775789,-11.025529,-0.571844
60.500000,5.209668,5.128391,-0.420604,10.904521,10.332844,-0.385647,-0.770838,-11.069881,-0.563228
60.600000,6.300362,6.155164,-0.432387,10.918939,10.455893,-0.384688,-0.771332,-11.112170,-0.547250
60.700000,7.336081,7.187938,-0.398265,10.927255,10.413588,-0.270253,-0.766825,-11.156011,-0.536803
