timestamp,px,py,pz,vx,vy,vz,roll,pitch,yaw
0.000000,0.000000,0.000000,0.000000,10.471976,10.471976,0.000000,0.000000,0.000000,0.785398
0.010000,0.104720,0.104720,0.000000,10.471970,10.471953,0.000000,0.000000,0.000000,0.785397
0.020000,0.209439,0.209439,0.000000,10.471953,10.471884,0.000000,0.000000,0.000000,0.785395
0.030000,0.314159,0.314157,0.000000,10.471924,10.471769,0.000000,0.000000,0.000000,0.785391
0.040000,0.418878,0.418874,0.000000,10.471884,10.471608,0.000000,0.000000,0.000000,0.785385
0.050000,0.523596,0.523589,0.000000,10.471832,10.471401,0.000000,0.000000,0.000000,0.785378
0.060000,0.628314,0.628302,0.000000,10.471769,10.471149,0.000000,0.000000,0.000000,0.785369
0.070000,0.733032,0.733012,0.000000,10.471694,10.470850,0.000000,0.000000,0.000000,0.785358
0.080000,0.837748,0.837719,0.000000,10.471608,10.470506,0.000000,0.000000,0.000000,0.785346
0.090000,0.942464,0.942422,0.000000,10.471510,10.470115,0.000000,0.000000,0.000000,0.785332
0.100000,1.047178,1.047121,0.000000,10.471401,10.469679,0.000000,0.000000,0.000000,0.785316
0.110000,1.151892,1.151815,0.000000,10.471281,10.469197,0.000000,0.000000,0.000000,0.785299
0.120000,1.256604,1.256505,0.000000,10.471149,10.468668,0.000000,0.000000,0.000000,0.785280
0.130000,1.361315,1.361189,0.000000,10.471005,10.468094,0.000000,0.000000,0.000000,0.785259
0.140000,1.466024,1.465867,0.000000,10.470850,10.467474,0.000000,0.000000,0.000000,0.785237
0.150000,1.570732,1.570538,0.000000,10.470684,10.466808,0.000000,0.000000,0.000000,0.785213
0.160000,1.675438,1.675203,0.000000,10.470506,10.466096,0.000000,0.000000,0.000000,0.785188
0.170000,1.780142,1.779860,0.000000,10.470316,10.465339,0.000000,0.000000,0.000000,0.785160
0.180000,1.884844,1.884509,0.000000,10.470115,10.464535,0.000000,0.000000,0.000000,0.785132
0.190000,1.989544,1.989150,0.000000,10.469903,10.463685,0.000000,0.000000,0.000000,0.785101
0.200000,2.094242,2.093783,0.000000,10.469679,10.462790,0.000000,0.000000,0.000000,0.785069
0.210000,2.198938,2.198406,0.000000,10.469443,10.461848,0.000000,0.000000,0.000000,0.785035
0.220000,2.303631,2.303020,0.000000,10.469197,10.460861,0.000000,0.000000,0.000000,0.785000
0.230000,2.408322,2.407623,0.000000,10.468938,10.459828,0.000000,0.000000,0.000000,0.784963
0.240000,2.513010,2.512216,0.000000,10.468668,10.458749,0.000000,0.000000,0.000000,0.784924
0.250000,2.617695,2.616798,0.000000,10.468387,10.457624,0.000000,0.000000,0.000000,0.784884
0.260000,2.722377,2.721368,0.000000,10.468094,10.456453,0.000000,0.000000,0.000000,0.784842
0.270000,2.827057,2.825927,0.000000,10.467790,10.455237,0.000000,0.000000,0.000000,0.784798
0.280000,2.931733,2.930473,0.000000,10.467474,10.453974,0.000000,0.000000,0.000000,0.784753
0.290000,3.036406,3.035006,0.000000,10.467147,10.452666,0.000000,0.000000,0.000000,0.784706
0.300000,3.141076,3.139526,0.000000,10.466808,10.451311,0.000000,0.000000,0.000000,0.784657
0.310000,3.245742,3.244032,0.000000,10.466458,10.449911,0.000000,0.000000,0.000000,0.784607
0.320000,3.350405,3.348524,0.000000,10.466096,10.448465,0.000000,0.000000,0.000000,0.784555
0.330000,3.455064,3.453001,0.000000,10.465723,10.446974,0.000000,0.000000,0.000000,0.784502
0.340000,3.559719,3.557463,0.000000,10.465339,10.445436,0.000000,0.000000,0.000000,0.784446
0.350000,3.664371,3.661910,0.000000,10.464942,10.443853,0.000000,0.000000,0.000000,0.784390
0.360000,3.769018,3.766340,0.000000,10.464535,10.442224,0.000000,0.000000,0.000000,0.784331
0.370000,3.873662,3.870754,0.000000,10.464116,10.440549,0.000000,0.000000,0.000000,0.784271
0.380000,3.978301,3.975151,0.000000,10.463685,10.438828,0.000000,0.000000,0.000000,0.784209
0.390000,4.082935,4.079531,0.000000,10.463243,10.437061,0.000000,0.000000,0.000000,0.784145
0.400000,4.187565,4.183892,0.000000,10.462790,10.435249,0.000000,0.000000,0.000000,0.784080
0.410000,4.292191,4.288235,0.000000,10.462325,10.433391,0.000000,0.000000,0.000000,0.784013
0.420000,4.396812,4.392560,0.000000,10.461848,10.431487,0.000000,0.000000,0.000000,0.783945
0.430000,4.501428,4.496865,0.000000,10.461361,10.429537,0.000000,0.000000,0.000000,0.783875
0.440000,4.606039,4.601150,0.000000,10.460861,10.427542,0.000000,0.000000,0.000000,0.783803
0.450000,4.710645,4.705416,0.000000,10.460350,10.425501,0.000000,0.000000,0.000000,0.783730
0.460000,4.815246,4.809660,0.000000,10.459828,10.423414,0.000000,0.000000,0.000000,0.783654
0.470000,4.919842,4.913884,0.000000,10.459294,10.421281,0.000000,0.000000,0.000000,0.783578
0.480000,5.024432,5.018086,0.000000,10.458749,10.419103,0.000000,0.000000,0.000000,0.783499
0.490000,5.129017,5.122266,0.000000,10.458192,10.416879,0.000000,0.000000,0.000000,0.783419
0.500000,5.233596,5.226423,0.000000,10.457624,10.414609,0.000000,0.000000,0.000000,0.783337
0.510000,5.338169,5.330558,0.000000,10.457044,10.412294,0.000000,0.000000,0.000000,0.783254
0.520000,5.442736,5.434669,0.000000,10.456453,10.409932,0.000000,0.000000,0.000000,0.783169
0.530000,5.547298,5.538756,0.000000,10.455851,10.407526,0.000000,0.000000,0.000000,0.783082
0.540000,5.651853,5.642819,0.000000,10.455237,10.405073,0.000000,0.000000,0.000000,0.782993
0.550000,5.756403,5.746858,0.000000,10.454611,10.402575,0.000000,0.000000,0.000000,0.782903
0.560000,5.860946,5.850871,0.000000,10.453974,10.400032,0.000000,0.000000,0.000000,0.782811
0.570000,5.965482,5.954858,0.000000,10.453326,10.397442,0.000000,0.000000,0.000000,0.782718
0.580000,6.070012,6.058819,0.000000,10.452666,10.394807,0.000000,0.000000,0.000000,0.782623
0.590000,6.174535,6.162754,0.000000,10.451994,10.392127,0.000000,0.000000,0.000000,0.782526
0.600000,6.279052,6.266662,0.000000,10.451311,10.389401,0.000000,0.000000,0.000000,0.782428
0.610000,6.383562,6.370542,0.000000,10.450617,10.386629,0.000000,0.000000,0.000000,0.782327
0.620000,6.488064,6.474394,0.000000,10.449911,10.383812,0.000000,0.000000,0.000000,0.782225
0.630000,6.592560,6.578218,0.000000,10.449194,10.380949,0.000000,0.000000,0.000000,0.782122
0.640000,6.697048,6.682013,0.000000,10.448465,10.378041,0.000000,0.000000,0.000000,0.782017
0.650000,6.801529,6.785779,0.000000,10.447725,10.375087,0.000000,0.000000,0.000000,0.781910
0.660000,6.906003,6.889515,0.000000,10.446974,10.372088,0.000000,0.000000,0.000000,0.781801
0.670000,7.010469,6.993220,0.000000,10.446211,10.369043,0.000000,0.000000,0.000000,0.781691
0.680000,7.114927,7.096895,0.000000,10.445436,10.365953,0.000000,0.000000,0.000000,0.781579
0.690000,7.219377,7.200539,0.000000,10.444650,10.362817,0.000000,0.000000,0.000000,0.781465
0.700000,7.323820,7.304151,0.000000,10.443853,10.359636,0.000000,0.000000,0.000000,0.781350
0.710000,7.428254,7.407732,0.000000,10.443044,10.356409,0.000000,0.000000,0.000000,0.781233
0.720000,7.532681,7.511279,0.000000,10.442224,10.353137,0.000000,0.000000,0.000000,0.781114
0.730000,7.637099,7.614794,0.000000,10.441392,10.349819,0.000000,0.000000,0.000000,0.780994
0.740000,7.741508,7.718276,0.000000,10.440549,10.346456,0.000000,0.000000,0.000000,0.780872
0.750000,7.845910,7.821723,0.000000,10.439694,10.343048,0.000000,0.000000,0.000000,0.780748
0.760000,7.950302,7.925137,0.000000,10.438828,10.339594,0.000000,0.000000,0.000000,0.780622
0.770000,8.054686,8.028515,0.000000,10.437950,10.336095,0.000000,0.000000,0.000000,0.780495
0.780000,8.159061,8.131858,0.000000,10.437061,10.332551,0.000000,0.000000,0.000000,0.780366
0.790000,8.263427,8.235166,0.000000,10.436161,10.328961,0.000000,0.000000,0.000000,0.780236
0.800000,8.367784,8.338437,0.000000,10.435249,10.325326,0.000000,0.000000,0.000000,0.780103
0.810000,8.472132,8.441672,0.000000,10.434325,10.321646,0.000000,0.000000,0.000000,0.779969
0.820000,8.576471,8.544870,0.000000,10.433391,10.317920,0.000000,0.000000,0.000000,0.779834
0.830000,8.680800,8.648030,0.000000,10.432444,10.314150,0.000000,0.000000,0.000000,0.779696
0.840000,8.785120,8.751153,0.000000,10.431487,10.310334,0.000000,0.000000,0.000000,0.779557
0.850000,8.889430,8.854237,0.000000,10.430518,10.306472,0.000000,0.000000,0.000000,0.779416
0.860000,8.993730,8.957282,0.000000,10.429537,10.302566,0.000000,0.000000,0.000000,0.779274
0.870000,9.098020,9.060288,0.000000,10.428545,10.298614,0.000000,0.000000,0.000000,0.779130
0.880000,9.202301,9.163254,0.000000,10.427542,10.294617,0.000000,0.000000,0.000000,0.778984
0.890000,9.306571,9.266180,0.000000,10.426527,10.290575,0.000000,0.000000,0.000000,0.778836
0.900000,9.410831,9.369066,0.000000,10.425501,10.286488,0.000000,0.000000,0.000000,0.778687
0.910000,9.515081,9.471910,0.000000,10.424463,10.282356,0.000000,0.000000,0.000000,0.778535
0.920000,9.619321,9.574713,0.000000,10.423414,10.278178,0.000000,0.000000,0.000000,0.778383
0.930000,9.723549,9.677473,0.000000,10.422353,10.273956,0.000000,0.000000,0.000000,0.778228
0.940000,9.827768,9.780192,0.000000,10.421281,10.269688,0.000000,0.000000,0.000000,0.778072
0.950000,9.931975,9.882867,0.000000,10.420198,10.265376,0.000000,0.000000,0.000000,0.777914
0.960000,10.036171,9.985499,0.000000,10.419103,10.261018,0.000000,0.000000,0.000000,0.777754
0.970000,10.140357,10.088087,0.000000,10.417996,10.256615,0.000000,0.000000,0.000000,0.777593
0.980000,10.244531,10.190631,0.000000,10.416879,10.252168,0.000000,0.000000,0.000000,0.777429
0.990000,10.348695,10.293130,0.000000,10.415750,10.247675,0.000000,0.000000,0.000000,0.777264
1.000000,10.452846,10.395585,0.000000,10.414609,10.243138,0.000000,0.000000,0.000000,0.777098
1.010000,10.556987,10.497993,0.000000,10.413457,10.238555,0.000000,0.000000,0.000000,0.776929
1.020000,10.661115,10.600355,0.000000,10.412294,10.233928,0.000000,0.000000,0.000000,0.776759
1.030000,10.765232,10.702671,0.000000,10.411119,10.229256,0.000000,0.000000,0.000000,0.776587
1.040000,10.869338,10.804940,0.000000,10.409932,10.224538,0.000000,0.000000,0.000000,0.776414
1.050000,10.973431,10.907162,0.000000,10.408735,10.219776,0.000000,0.000000,0.000000,0.776238
1.060000,11.077512,11.009336,0.000000,10.407526,10.214970,0.000000,0.000000,0.000000,0.776061
1.070000,11.181582,11.111461,0.000000,10.406305,10.210118,0.000000,0.000000,0.000000,0.775882
1.080000,11.285638,11.213538,0.000000,10.405073,10.205222,0.000000,0.000000,0.000000,0.775702
1.090000,11.389683,11.315566,0.000000,10.403830,10.200280,0.000000,0.000000,0.000000,0.775519
1.100000,11.493715,11.417544,0.000000,10.402575,10.195294,0.000000,0.000000,0.000000,0.775335
1.110000,11.597734,11.519471,0.000000,10.401309,10.190264,0.000000,0.000000,0.000000,0.775149
1.120000,11.701741,11.621349,0.000000,10.400032,10.185188,0.000000,0.000000,0.000000,0.774962
1.130000,11.805735,11.723175,0.000000,10.398743,10.180068,0.000000,0.000000,0.000000,0.774772
1.140000,11.909716,11.824950,0.000000,10.397442,10.174904,0.000000,0.000000,0.000000,0.774581
1.150000,12.013684,11.926673,0.000000,10.396131,10.169694,0.000000,0.000000,0.000000,0.774388
1.160000,12.117639,12.028344,0.000000,10.394807,10.164440,0.000000,0.000000,0.000000,0.774194
1.170000,12.221580,12.129962,0.000000,10.393473,10.159142,0.000000,0.000000,0.000000,0.773997
1.180000,12.325508,12.231526,0.000000,10.392127,10.153799,0.000000,0.000000,0.000000,0.773799
1.190000,12.429422,12.333037,0.000000,10.390770,10.148411,0.000000,0.000000,0.000000,0.773599
1.200000,12.533323,12.434494,0.000000,10.389401,10.142979,0.000000,0.000000,0.000000,0.773397
1.210000,12.637210,12.535897,0.000000,10.388021,10.137503,0.000000,0.000000,0.000000,0.773194
1.220000,12.741084,12.637244,0.000000,10.386629,10.131981,0.000000,0.000000,0.000000,0.772988
1.230000,12.844943,12.738536,0.000000,10.385226,10.126416,0.000000,0.000000,0.000000,0.772781
1.240000,12.948788,12.839772,0.000000,10.383812,10.120806,0.000000,0.000000,0.000000,0.772572
1.250000,13.052619,12.940952,0.000000,10.382386,10.115152,0.000000,0.000000,0.000000,0.772361
1.260000,13.156436,13.042075,0.000000,10.380949,10.109453,0.000000,0.000000,0.000000,0.772149
1.270000,13.260238,13.143141,0.000000,10.379501,10.103710,0.000000,0.000000,0.000000,0.771935
1.280000,13.364026,13.244149,0.000000,10.378041,10.097922,0.000000,0.000000,0.000000,0.771719
1.290000,13.467799,13.345099,0.000000,10.376570,10.092091,0.000000,0.000000,0.000000,0.771501
1.300000,13.571557,13.445991,0.000000,10.375087,10.086215,0.000000,0.000000,0.000000,0.771281
1.310000,13.675301,13.546824,0.000000,10.373593,10.080295,0.000000,0.000000,0.000000,0.771060
1.320000,13.779029,13.647597,0.000000,10.372088,10.074330,0.000000,0.000000,0.000000,0.770836
1.330000,13.882742,13.748310,0.000000,10.370571,10.068322,0.000000,0.000000,0.000000,0.770611
1.340000,13.986440,13.848963,0.000000,10.369043,10.062269,0.000000,0.000000,0.000000,0.770384
1.350000,14.090123,13.949555,0.000000,10.367503,10.056172,0.000000,0.000000,0.000000,0.770156
1.360000,14.193790,14.050086,0.000000,10.365953,10.050031,0.000000,0.000000,0.000000,0.769925
1.370000,14.297442,14.150556,0.000000,10.364390,10.043846,0.000000,0.000000,0.000000,0.769693
1.380000,14.401078,14.250963,0.000000,10.362817,10.037617,0.000000,0.000000,0.000000,0.769459
1.390000,14.504699,14.351308,0.000000,10.361232,10.031344,0.000000,0.000000,0.000000,0.769223
1.400000,14.608303,14.451590,0.000000,10.359636,10.025026,0.000000,0.000000,0.000000,0.768985
1.410000,14.711891,14.551808,0.000000,10.358028,10.018665,0.000000,0.000000,0.000000,0.768745
1.420000,14.815463,14.651963,0.000000,10.356409,10.012260,0.000000,0.000000,0.000000,0.768504
1.430000,14.919019,14.752053,0.000000,10.354779,10.005811,0.000000,0.000000,0.000000,0.768260
1.440000,15.022559,14.852079,0.000000,10.353137,9.999318,0.000000,0.000000,0.000000,0.768015
1.450000,15.126082,14.952040,0.000000,10.351484,9.992781,0.000000,0.000000,0.000000,0.767768
1.460000,15.229589,15.051935,0.000000,10.349819,9.986201,0.000000,0.000000,0.000000,0.767520
1.470000,15.333078,15.151763,0.000000,10.348144,9.979576,0.000000,0.000000,0.000000,0.767269
1.480000,15.436551,15.251526,0.000000,10.346456,9.972908,0.000000,0.000000,0.000000,0.767016
1.490000,15.540007,15.351221,0.000000,10.344758,9.966196,0.000000,0.000000,0.000000,0.766762
1.500000,15.643447,15.450850,0.000000,10.343048,9.959441,0.000000,0.000000,0.000000,0.766506
1.510000,15.746868,15.550410,0.000000,10.341327,9.952641,0.000000,0.000000,0.000000,0.766248
1.520000,15.850273,15.649902,0.000000,10.339594,9.945798,0.000000,0.000000,0.000000,0.765988
1.530000,15.953660,15.749326,0.000000,10.337851,9.938912,0.000000,0.000000,0.000000,0.765726
1.540000,16.057030,15.848680,0.000000,10.336095,9.931981,0.000000,0.000000,0.000000,0.765462
1.550000,16.160382,15.947965,0.000000,10.334329,9.925008,0.000000,0.000000,0.000000,0.765197
1.560000,16.263717,16.047180,0.000000,10.332551,9.917990,0.000000,0.000000,0.000000,0.764929
1.570000,16.367033,16.146325,0.000000,10.330762,9.910929,0.000000,0.000000,0.000000,0.764660
1.580000,16.470332,16.245399,0.000000,10.328961,9.903825,0.000000,0.000000,0.000000,0.764389
1.590000,16.573612,16.344401,0.000000,10.327150,9.896677,0.000000,0.000000,0.000000,0.764116
1.600000,16.676875,16.443332,0.000000,10.325326,9.889486,0.000000,0.000000,0.000000,0.763841
1.610000,16.780119,16.542191,0.000000,10.323492,9.882252,0.000000,0.000000,0.000000,0.763564
1.620000,16.883344,16.640977,0.000000,10.321646,9.874974,0.000000,0.000000,0.000000,0.763286
1.630000,16.986552,16.739690,0.000000,10.319789,9.867653,0.000000,0.000000,0.000000,0.763005
1.640000,17.089740,16.838330,0.000000,10.317920,9.860288,0.000000,0.000000,0.000000,0.762723
1.650000,17.192910,16.936896,0.000000,10.316041,9.852880,0.000000,0.000000,0.000000,0.762438
1.660000,17.296061,17.035388,0.000000,10.314150,9.845429,0.000000,0.000000,0.000000,0.762152
1.670000,17.399193,17.133804,0.000000,10.312247,9.837935,0.000000,0.000000,0.000000,0.761864
1.680000,17.502306,17.232146,0.000000,10.310334,9.830398,0.000000,0.000000,0.000000,0.761574
1.690000,17.605400,17.330412,0.000000,10.308409,9.822818,0.000000,0.000000,0.000000,0.761282
1.700000,17.708474,17.428602,0.000000,10.306472,9.815194,0.000000,0.000000,0.000000,0.760988
1.710000,17.811529,17.526716,0.000000,10.304525,9.807527,0.000000,0.000000,0.000000,0.760692
1.720000,17.914564,17.624753,0.000000,10.302566,9.799818,0.000000,0.000000,0.000000,0.760394
1.730000,18.017580,17.722712,0.000000,10.300596,9.792065,0.000000,0.000000,0.000000,0.760094
1.740000,18.120576,17.820594,0.000000,10.298614,9.784270,0.000000,0.000000,0.000000,0.759793
1.750000,18.223553,17.918397,0.000000,10.296621,9.776431,0.000000,0.000000,0.000000,0.759489
1.760000,18.326509,18.016122,0.000000,10.294617,9.768550,0.000000,0.000000,0.000000,0.759184
1.770000,18.429445,18.113768,0.000000,10.292602,9.760626,0.000000,0.000000,0.000000,0.758876
1.780000,18.532361,18.211335,0.000000,10.290575,9.752659,0.000000,0.000000,0.000000,0.758567
1.790000,18.635256,18.308821,0.000000,10.288537,9.744649,0.000000,0.000000,0.000000,0.758255
1.800000,18.738131,18.406228,0.000000,10.286488,9.736597,0.000000,0.000000,0.000000,0.757942
1.810000,18.840986,18.503553,0.000000,10.284428,9.728501,0.000000,0.000000,0.000000,0.757627
1.820000,18.943820,18.600798,0.000000,10.282356,9.720363,0.000000,0.000000,0.000000,0.757310
1.830000,19.046633,18.697960,0.000000,10.280273,9.712183,0.000000,0.000000,0.000000,0.756991
1.840000,19.149425,18.795041,0.000000,10.278178,9.703960,0.000000,0.000000,0.000000,0.756669
1.850000,19.252197,18.892039,0.000000,10.276073,9.695694,0.000000,0.000000,0.000000,0.756346
1.860000,19.354947,18.988955,0.000000,10.273956,9.687386,0.000000,0.000000,0.000000,0.756021
1.870000,19.457676,19.085787,0.000000,10.271828,9.679035,0.000000,0.000000,0.000000,0.755694
1.880000,19.560383,19.182535,0.000000,10.269688,9.670642,0.000000,0.000000,0.000000,0.755365
1.890000,19.663069,19.279200,0.000000,10.267538,9.662206,0.000000,0.000000,0.000000,0.755034
1.900000,19.765734,19.375779,0.000000,10.265376,9.653728,0.000000,0.000000,0.000000,0.754701
1.910000,19.868377,19.472274,0.000000,10.263203,9.645208,0.000000,0.000000,0.000000,0.754366
1.920000,19.970998,19.568683,0.000000,10.261018,9.636645,0.000000,0.000000,0.000000,0.754029
1.930000,20.073597,19.665007,0.000000,10.258822,9.628040,0.000000,0.000000,0.000000,0.753690
1.940000,20.176174,19.761244,0.000000,10.256615,9.619393,0.000000,0.000000,0.000000,0.753349
1.950000,20.278730,19.857395,0.000000,10.254397,9.610704,0.000000,0.000000,0.000000,0.753006
1.960000,20.381262,19.953458,0.000000,10.252168,9.601972,0.000000,0.000000,0.000000,0.752661
1.970000,20.483773,20.049434,0.000000,10.249927,9.593199,0.000000,0.000000,0.000000,0.752314
1.980000,20.586261,20.145322,0.000000,10.247675,9.584383,0.000000,0.000000,0.000000,0.751965
1.990000,20.688726,20.241121,0.000000,10.245412,9.575525,0.000000,0.000000,0.000000,0.751614
2.000000,20.791169,20.336832,0.000000,10.243138,9.566626,0.000000,0.000000,0.000000,0.751261
2.010000,20.893589,20.432454,0.000000,10.240852,9.557684,0.000000,0.000000,0.000000,0.750906
2.020000,20.995986,20.527986,0.000000,10.238555,9.548700,0.000000,0.000000,0.000000,0.750549
2.030000,21.098360,20.623428,0.000000,10.236247,9.539675,0.000000,0.000000,0.000000,0.750189
2.040000,21.200711,20.718779,0.000000,10.233928,9.530607,0.000000,0.000000,0.000000,0.749828
2.050000,21.303039,20.814040,0.000000,10.231597,9.521498,0.000000,0.000000,0.000000,0.749465
2.060000,21.405343,20.909209,0.000000,10.229256,9.512347,0.000000,0.000000,0.000000,0.749100
2.070000,21.507624,21.004286,0.000000,10.226903,9.503155,0.000000,0.000000,0.000000,0.748732
2.080000,21.609881,21.099272,0.000000,10.224538,9.493920,0.000000,0.000000,0.000000,0.748363
2.090000,21.712114,21.194165,0.000000,10.222163,9.484644,0.000000,0.000000,0.000000,0.747991
2.100000,21.814324,21.288965,0.000000,10.219776,9.475327,0.000000,0.000000,0.000000,0.747617
2.110000,21.916510,21.383671,0.000000,10.217379,9.465968,0.000000,0.000000,0.000000,0.747242
2.120000,22.018672,21.478284,0.000000,10.214970,9.456567,0.000000,0.000000,0.000000,0.746864
2.130000,22.120809,21.572802,0.000000,10.212549,9.447125,0.000000,0.000000,0.000000,0.746484
2.140000,22.222923,21.667226,0.000000,10.210118,9.437641,0.000000,0.000000,0.000000,0.746102
2.150000,22.325012,21.761555,0.000000,10.207675,9.428116,0.000000,0.000000,0.000000,0.745718
2.160000,22.427076,21.855788,0.000000,10.205222,9.418550,0.000000,0.000000,0.000000,0.745332
2.170000,22.529116,21.949926,0.000000,10.202757,9.408942,0.000000,0.000000,0.000000,0.744944
2.180000,22.631131,22.043967,0.000000,10.200280,9.399293,0.000000,0.000000,0.000000,0.744553
2.190000,22.733122,22.137912,0.000000,10.197793,9.389603,0.000000,0.000000,0.000000,0.744161
2.200000,22.835087,22.231759,0.000000,10.195294,9.379872,0.000000,0.000000,0.000000,0.743766
2.210000,22.937027,22.325509,0.000000,10.192785,9.370099,0.000000,0.000000,0.000000,0.743370
2.220000,23.038943,22.419161,0.000000,10.190264,9.360286,0.000000,0.000000,0.000000,0.742971
2.230000,23.140833,22.512714,0.000000,10.187732,9.350431,0.000000,0.000000,0.000000,0.742570
2.240000,23.242697,22.606169,0.000000,10.185188,9.340535,0.000000,0.000000,0.000000,0.742167
2.250000,23.344536,22.699525,0.000000,10.182634,9.330599,0.000000,0.000000,0.000000,0.741761
2.260000,23.446350,22.792781,0.000000,10.180068,9.320621,0.000000,0.000000,0.000000,0.741354
2.270000,23.548138,22.885937,0.000000,10.177492,9.310602,0.000000,0.000000,0.000000,0.740944
2.280000,23.649900,22.978993,0.000000,10.174904,9.300543,0.000000,0.000000,0.000000,0.740533
2.290000,23.751636,23.071948,0.000000,10.172305,9.290443,0.000000,0.000000,0.000000,0.740119
2.300000,23.853346,23.164802,0.000000,10.169694,9.280302,0.000000,0.000000,0.000000,0.739703
2.310000,23.955030,23.257554,0.000000,10.167073,9.270121,0.000000,0.000000,0.000000,0.739285
2.320000,24.056687,23.350204,0.000000,10.164440,9.259898,0.000000,0.000000,0.000000,0.738864
2.330000,24.158318,23.442752,0.000000,10.161797,9.249636,0.000000,0.000000,0.000000,0.738442
2.340000,24.259923,23.535197,0.000000,10.159142,9.239332,0.000000,0.000000,0.000000,0.738017
2.350000,24.361501,23.627538,0.000000,10.156476,9.228988,0.000000,0.000000,0.000000,0.737590
2.360000,24.463053,23.719776,0.000000,10.153799,9.218604,0.000000,0.000000,0.000000,0.737161
2.370000,24.564577,23.811910,0.000000,10.151111,9.208179,0.000000,0.000000,0.000000,0.736730
2.380000,24.666075,23.903940,0.000000,10.148411,9.197714,0.000000,0.000000,0.000000,0.736296
2.390000,24.767545,23.995864,0.000000,10.145701,9.187208,0.000000,0.000000,0.000000,0.735860
2.400000,24.868989,24.087684,0.000000,10.142979,9.176662,0.000000,0.000000,0.000000,0.735422
2.410000,24.970405,24.179397,0.000000,10.140246,9.166076,0.000000,0.000000,0.000000,0.734982
2.420000,25.071794,24.271005,0.000000,10.137503,9.155450,0.000000,0.000000,0.000000,0.734540
2.430000,25.173155,24.362506,0.000000,10.134748,9.144783,0.000000,0.000000,0.000000,0.734095
2.440000,25.274489,24.453901,0.000000,10.131981,9.134076,0.000000,0.000000,0.000000,0.733648
2.450000,25.375794,24.545188,0.000000,10.129204,9.123330,0.000000,0.000000,0.000000,0.733199
2.460000,25.477073,24.636367,0.000000,10.126416,9.112543,0.000000,0.000000,0.000000,0.732748
2.470000,25.578323,24.727438,0.000000,10.123616,9.101716,0.000000,0.000000,0.000000,0.732294
2.480000,25.679545,24.818401,0.000000,10.120806,9.090850,0.000000,0.000000,0.000000,0.731838
2.490000,25.780739,24.909255,0.000000,10.117984,9.079943,0.000000,0.000000,0.000000,0.731380
2.500000,25.881905,25.000000,0.000000,10.115152,9.068997,0.000000,0.000000,0.000000,0.730920
2.510000,25.983042,25.090635,0.000000,10.112308,9.058011,0.000000,0.000000,0.000000,0.730457
2.520000,26.084151,25.181160,0.000000,10.109453,9.046985,0.000000,0.000000,0.000000,0.729992
2.530000,26.185231,25.271575,0.000000,10.106587,9.035919,0.000000,0.000000,0.000000,0.729525
2.540000,26.286282,25.361878,0.000000,10.103710,9.024814,0.000000,0.000000,0.000000,0.729055
2.550000,26.387305,25.452071,0.000000,10.100822,9.013669,0.000000,0.000000,0.000000,0.728584
2.560000,26.488299,25.542152,0.000000,10.097922,9.002485,0.000000,0.000000,0.000000,0.728109
2.570000,26.589263,25.632120,0.000000,10.095012,8.991261,0.000000,0.000000,0.000000,0.727633
2.580000,26.690199,25.721977,0.000000,10.092091,8.979998,0.000000,0.000000,0.000000,0.727154
2.590000,26.791105,25.811720,0.000000,10.089158,8.968696,0.000000,0.000000,0.000000,0.726673
2.600000,26.891982,25.901350,0.000000,10.086215,8.957354,0.000000,0.000000,0.000000,0.726190
2.610000,26.992829,25.990867,0.000000,10.083260,8.945972,0.000000,0.000000,0.000000,0.725704
2.620000,27.093647,26.080270,0.000000,10.080295,8.934552,0.000000,0.000000,0.000000,0.725216
2.630000,27.194435,26.169558,0.000000,10.077318,8.923092,0.000000,0.000000,0.000000,0.724725
2.640000,27.295194,26.258731,0.000000,10.074330,8.911593,0.000000,0.000000,0.000000,0.724233
2.650000,27.395922,26.347790,0.000000,10.071331,8.900055,0.000000,0.000000,0.000000,0.723737
2.660000,27.496620,26.436732,0.000000,10.068322,8.888479,0.000000,0.000000,0.000000,0.723240
2.670000,27.597288,26.525559,0.000000,10.065301,8.876863,0.000000,0.000000,0.000000,0.722740
2.680000,27.697926,26.614270,0.000000,10.062269,8.865208,0.000000,0.000000,0.000000,0.722238
2.690000,27.798534,26.702863,0.000000,10.059226,8.853514,0.000000,0.000000,0.000000,0.721733
2.700000,27.899111,26.791340,0.000000,10.056172,8.841781,0.000000,0.000000,0.000000,0.721226
2.710000,27.999657,26.879699,0.000000,10.053107,8.830010,0.000000,0.000000,0.000000,0.720717
2.720000,28.100173,26.967940,0.000000,10.050031,8.818200,0.000000,0.000000,0.000000,0.720205
2.730000,28.200658,27.056063,0.000000,10.046944,8.806351,0.000000,0.000000,0.000000,0.719690
2.740000,28.301112,27.144067,0.000000,10.043846,8.794464,0.000000,0.000000,0.000000,0.719174
2.750000,28.401534,27.231952,0.000000,10.040737,8.782538,0.000000,0.000000,0.000000,0.718655
2.760000,28.501926,27.319717,0.000000,10.037617,8.770573,0.000000,0.000000,0.000000,0.718133
2.770000,28.602287,27.407363,0.000000,10.034486,8.758570,0.000000,0.000000,0.000000,0.717609
2.780000,28.702616,27.494889,0.000000,10.031344,8.746529,0.000000,0.000000,0.000000,0.717083
2.790000,28.802914,27.582294,0.000000,10.028190,8.734449,0.000000,0.000000,0.000000,0.716554
2.800000,28.903180,27.669577,0.000000,10.025026,8.722331,0.000000,0.000000,0.000000,0.716023
2.810000,29.003414,27.756740,0.000000,10.021851,8.710174,0.000000,0.000000,0.000000,0.715489
2.820000,29.103617,27.843781,0.000000,10.018665,8.697980,0.000000,0.000000,0.000000,0.714953
2.830000,29.203787,27.930699,0.000000,10.015468,8.685747,0.000000,0.000000,0.000000,0.714414
2.840000,29.303926,28.017496,0.000000,10.012260,8.673476,0.000000,0.000000,0.000000,0.713873
2.850000,29.404033,28.104169,0.000000,10.009041,8.661168,0.000000,0.000000,0.000000,0.713329
2.860000,29.504107,28.190719,0.000000,10.005811,8.648821,0.000000,0.000000,0.000000,0.712783
2.870000,29.604149,28.277145,0.000000,10.002570,8.636436,0.000000,0.000000,0.000000,0.712235
2.880000,29.704158,28.363447,0.000000,9.999318,8.624013,0.000000,0.000000,0.000000,0.711683
2.890000,29.804135,28.449625,0.000000,9.996055,8.611553,0.000000,0.000000,0.000000,0.711130
2.900000,29.904079,28.535678,0.000000,9.992781,8.599054,0.000000,0.000000,0.000000,0.710574
2.910000,30.003991,28.621606,0.000000,9.989497,8.586518,0.000000,0.000000,0.000000,0.710015
2.920000,30.103869,28.707409,0.000000,9.986201,8.573945,0.000000,0.000000,0.000000,0.709454
2.930000,30.203715,28.793085,0.000000,9.982894,8.561333,0.000000,0.000000,0.000000,0.708890
2.940000,30.303527,28.878635,0.000000,9.979576,8.548685,0.000000,0.000000,0.000000,0.708324
2.950000,30.403306,28.964059,0.000000,9.976248,8.535998,0.000000,0.000000,0.000000,0.707755
2.960000,30.503052,29.049355,0.000000,9.972908,8.523275,0.000000,0.000000,0.000000,0.707183
2.970000,30.602764,29.134524,0.000000,9.969558,8.510513,0.000000,0.000000,0.000000,0.706609
2.980000,30.702443,29.219565,0.000000,9.966196,8.497715,0.000000,0.000000,0.000000,0.706033
2.990000,30.802088,29.304478,0.000000,9.962824,8.484879,0.000000,0.000000,0.000000,0.705454
3.000000,30.901699,29.389263,0.000000,9.959441,8.472006,0.000000,0.000000,0.000000,0.704872
3.010000,31.001277,29.473918,0.000000,9.956046,8.459096,0.000000,0.000000,0.000000,0.704287
3.020000,31.100820,29.558444,0.000000,9.952641,8.446149,0.000000,0.000000,0.000000,0.703700
3.030000,31.200330,29.642841,0.000000,9.949225,8.433164,0.000000,0.000000,0.000000,0.703111
3.040000,31.299805,29.727108,0.000000,9.945798,8.420143,0.000000,0.000000,0.000000,0.702519
3.050000,31.399246,29.811244,0.000000,9.942360,8.407085,0.000000,0.000000,0.000000,0.701924
3.060000,31.498652,29.895249,0.000000,9.938912,8.393990,0.000000,0.000000,0.000000,0.701326
3.070000,31.598024,29.979123,0.000000,9.935452,8.380858,0.000000,0.000000,0.000000,0.700726
3.080000,31.697361,30.062866,0.000000,9.931981,8.367689,0.000000,0.000000,0.000000,0.700123
3.090000,31.796663,30.146477,0.000000,9.928500,8.354484,0.000000,0.000000,0.000000,0.699518
3.100000,31.895931,30.229956,0.000000,9.925008,8.341242,0.000000,0.000000,0.000000,0.698910
3.110000,31.995163,30.313302,0.000000,9.921504,8.327963,0.000000,0.000000,0.000000,0.698299
3.120000,32.094361,30.396515,0.000000,9.917990,8.314648,0.000000,0.000000,0.000000,0.697686
3.130000,32.193523,30.479595,0.000000,9.914465,8.301296,0.000000,0.000000,0.000000,0.697070
3.140000,32.292650,30.562541,0.000000,9.910929,8.287908,0.000000,0.000000,0.000000,0.696451
3.150000,32.391742,30.645353,0.000000,9.907383,8.274484,0.000000,0.000000,0.000000,0.695829
3.160000,32.490798,30.728030,0.000000,9.903825,8.261023,0.000000,0.000000,0.000000,0.695205
3.170000,32.589818,30.810573,0.000000,9.900257,8.247526,0.000000,0.000000,0.000000,0.694578
3.180000,32.688803,30.892981,0.000000,9.896677,8.233993,0.000000,0.000000,0.000000,0.693948
3.190000,32.787752,30.975253,0.000000,9.893087,8.220424,0.000000,0.000000,0.000000,0.693316
3.200000,32.886665,31.057389,0.000000,9.889486,8.206819,0.000000,0.000000,0.000000,0.692681
3.210000,32.985541,31.139389,0.000000,9.885874,8.193177,0.000000,0.000000,0.000000,0.692043
3.220000,33.084382,31.221252,0.000000,9.882252,8.179500,0.000000,0.000000,0.000000,0.691402
3.230000,33.183186,31.302979,0.000000,9.878618,8.165787,0.000000,0.000000,0.000000,0.690759
3.240000,33.281954,31.384568,0.000000,9.874974,8.152038,0.000000,0.000000,0.000000,0.690112
3.250000,33.380686,31.466020,0.000000,9.871319,8.138253,0.000000,0.000000,0.000000,0.689463
3.260000,33.479381,31.547333,0.000000,9.867653,8.124433,0.000000,0.000000,0.000000,0.688812
3.270000,33.578039,31.628508,0.000000,9.863976,8.110577,0.000000,0.000000,0.000000,0.688157
3.280000,33.676660,31.709544,0.000000,9.860288,8.096685,0.000000,0.000000,0.000000,0.687499
3.290000,33.775245,31.790442,0.000000,9.856590,8.082758,0.000000,0.000000,0.000000,0.686839
3.300000,33.873792,31.871199,0.000000,9.852880,8.068796,0.000000,0.000000,0.000000,0.686176
3.310000,33.972302,31.951817,0.000000,9.849160,8.054798,0.000000,0.000000,0.000000,0.685510
3.320000,34.070775,32.032295,0.000000,9.845429,8.040765,0.000000,0.000000,0.000000,0.684841
3.330000,34.169211,32.112633,0.000000,9.841688,8.026696,0.000000,0.000000,0.000000,0.684170
3.340000,34.267609,32.192829,0.000000,9.837935,8.012592,0.000000,0.000000,0.000000,0.683495
3.350000,34.365969,32.272884,0.000000,9.834172,7.998453,0.000000,0.000000,0.000000,0.682818
3.360000,34.464292,32.352798,0.000000,9.830398,7.984279,0.000000,0.000000,0.000000,0.682138
3.370000,34.562577,32.432570,0.000000,9.826613,7.970070,0.000000,0.000000,0.000000,0.681455
3.380000,34.660825,32.512199,0.000000,9.822818,7.955826,0.000000,0.000000,0.000000,0.680769
3.390000,34.759034,32.591686,0.000000,9.819011,7.941547,0.000000,0.000000,0.000000,0.680080
3.400000,34.857205,32.671030,0.000000,9.815194,7.927234,0.000000,0.000000,0.000000,0.679388
3.410000,34.955338,32.750231,0.000000,9.811366,7.912885,0.000000,0.000000,0.000000,0.678693
3.420000,35.053432,32.829288,0.000000,9.807527,7.898502,0.000000,0.000000,0.000000,0.677995
3.430000,35.151488,32.908201,0.000000,9.803678,7.884084,0.000000,0.000000,0.000000,0.677295
3.440000,35.249506,32.986969,0.000000,9.799818,7.869632,0.000000,0.000000,0.000000,0.676591
3.450000,35.347484,33.065593,0.000000,9.795947,7.855145,0.000000,0.000000,0.000000,0.675884
3.460000,35.445424,33.144072,0.000000,9.792065,7.840623,0.000000,0.000000,0.000000,0.675175
3.470000,35.543326,33.222406,0.000000,9.788173,7.826068,0.000000,0.000000,0.000000,0.674462
3.480000,35.641188,33.300593,0.000000,9.784270,7.811477,0.000000,0.000000,0.000000,0.673747
3.490000,35.739011,33.378635,0.000000,9.780356,7.796853,0.000000,0.000000,0.000000,0.673028
3.500000,35.836795,33.456530,0.000000,9.776431,7.782194,0.000000,0.000000,0.000000,0.672307
3.510000,35.934540,33.534279,0.000000,9.772496,7.767502,0.000000,0.000000,0.000000,0.671582
3.520000,36.032245,33.611880,0.000000,9.768550,7.752775,0.000000,0.000000,0.000000,0.670855
3.530000,36.129911,33.689334,0.000000,9.764593,7.738014,0.000000,0.000000,0.000000,0.670124
3.540000,36.227537,33.766640,0.000000,9.760626,7.723219,0.000000,0.000000,0.000000,0.669391
3.550000,36.325123,33.843798,0.000000,9.756648,7.708391,0.000000,0.000000,0.000000,0.668654
3.560000,36.422670,33.920808,0.000000,9.752659,7.693528,0.000000,0.000000,0.000000,0.667914
3.570000,36.520176,33.997669,0.000000,9.748659,7.678632,0.000000,0.000000,0.000000,0.667171
3.580000,36.617643,34.074381,0.000000,9.744649,7.663702,0.000000,0.000000,0.000000,0.666425
3.590000,36.715069,34.150943,0.000000,9.740628,7.648739,0.000000,0.000000,0.000000,0.665676
3.600000,36.812455,34.227355,0.000000,9.736597,7.633742,0.000000,0.000000,0.000000,0.664924
3.610000,36.909801,34.303618,0.000000,9.732554,7.618711,0.000000,0.000000,0.000000,0.664169
3.620000,37.007106,34.379729,0.000000,9.728501,7.603647,0.000000,0.000000,0.000000,0.663411
3.630000,37.104371,34.455690,0.000000,9.724438,7.588550,0.000000,0.000000,0.000000,0.662649
3.640000,37.201595,34.531500,0.000000,9.720363,7.573419,0.000000,0.000000,0.000000,0.661885
3.650000,37.298778,34.607159,0.000000,9.716279,7.558255,0.000000,0.000000,0.000000,0.661117
3.660000,37.395921,34.682665,0.000000,9.712183,7.543058,0.000000,0.000000,0.000000,0.660346
3.670000,37.493022,34.758020,0.000000,9.708077,7.527828,0.000000,0.000000,0.000000,0.659572
3.680000,37.590082,34.833222,0.000000,9.703960,7.512565,0.000000,0.000000,0.000000,0.658795
3.690000,37.687101,34.908271,0.000000,9.699832,7.497269,0.000000,0.000000,0.000000,0.658014
3.700000,37.784079,34.983167,0.000000,9.695694,7.481940,0.000000,0.000000,0.000000,0.657230
3.710000,37.881015,35.057910,0.000000,9.691545,7.466579,0.000000,0.000000,0.000000,0.656444
3.720000,37.977910,35.132498,0.000000,9.687386,7.451184,0.000000,0.000000,0.000000,0.655653
3.730000,38.074763,35.206933,0.000000,9.683216,7.435757,0.000000,0.000000,0.000000,0.654860
3.740000,38.171574,35.281214,0.000000,9.679035,7.420297,0.000000,0.000000,0.000000,0.654063
3.750000,38.268343,35.355339,0.000000,9.674844,7.404805,0.000000,0.000000,0.000000,0.653264
3.760000,38.365071,35.429310,0.000000,9.670642,7.389280,0.000000,0.000000,0.000000,0.652460
3.770000,38.461756,35.503125,0.000000,9.666429,7.373723,0.000000,0.000000,0.000000,0.651654
3.780000,38.558399,35.576784,0.000000,9.662206,7.358133,0.000000,0.000000,0.000000,0.650844
3.790000,38.655000,35.650287,0.000000,9.657973,7.342511,0.000000,0.000000,0.000000,0.650031
3.800000,38.751559,35.723634,0.000000,9.653728,7.326857,0.000000,0.000000,0.000000,0.649215
3.810000,38.848075,35.796824,0.000000,9.649473,7.311171,0.000000,0.000000,0.000000,0.648395
3.820000,38.944548,35.869857,0.000000,9.645208,7.295453,0.000000,0.000000,0.000000,0.647573
3.830000,39.040979,35.942733,0.000000,9.640932,7.279703,0.000000,0.000000,0.000000,0.646746
3.840000,39.137367,36.015451,0.000000,9.636645,7.263920,0.000000,0.000000,0.000000,0.645917
3.850000,39.233712,36.088011,0.000000,9.632348,7.248106,0.000000,0.000000,0.000000,0.645084
3.860000,39.330014,36.160413,0.000000,9.628040,7.232261,0.000000,0.000000,0.000000,0.644247
3.870000,39.426272,36.232657,0.000000,9.623722,7.216383,0.000000,0.000000,0.000000,0.643407
3.880000,39.522488,36.304741,0.000000,9.619393,7.200474,0.000000,0.000000,0.000000,0.642564
3.890000,39.618660,36.376666,0.000000,9.615054,7.184533,0.000000,0.000000,0.000000,0.641718
3.900000,39.714789,36.448431,0.000000,9.610704,7.168561,0.000000,0.000000,0.000000,0.640868
3.910000,39.810874,36.520037,0.000000,9.606343,7.152557,0.000000,0.000000,0.000000,0.640014
3.920000,39.906916,36.591482,0.000000,9.601972,7.136522,0.000000,0.000000,0.000000,0.639157
3.930000,40.002914,36.662767,0.000000,9.597591,7.120455,0.000000,0.000000,0.000000,0.638297
3.940000,40.098868,36.733891,0.000000,9.593199,7.104357,0.000000,0.000000,0.000000,0.637433
3.950000,40.194778,36.804854,0.000000,9.588796,7.088229,0.000000,0.000000,0.000000,0.636566
3.960000,40.290644,36.875656,0.000000,9.584383,7.072069,0.000000,0.000000,0.000000,0.635695
3.970000,40.386465,36.946296,0.000000,9.579960,7.055878,0.000000,0.000000,0.000000,0.634821
3.980000,40.482243,37.016773,0.000000,9.575525,7.039656,0.000000,0.000000,0.000000,0.633943
3.990000,40.577976,37.087089,0.000000,9.571081,7.023403,0.000000,0.000000,0.000000,0.633062
4.000000,40.673664,37.157241,0.000000,9.566626,7.007119,0.000000,0.000000,0.000000,0.632177
4.010000,40.769308,37.227231,0.000000,9.562160,6.990805,0.000000,0.000000,0.000000,0.631289
4.020000,40.864907,37.297057,0.000000,9.557684,6.974460,0.000000,0.000000,0.000000,0.630397
4.030000,40.960462,37.366720,0.000000,9.553197,6.958084,0.000000,0.000000,0.000000,0.629501
4.040000,41.055971,37.436219,0.000000,9.548700,6.941678,0.000000,0.000000,0.000000,0.628602
4.050000,41.151436,37.505553,0.000000,9.544193,6.925242,0.000000,0.000000,0.000000,0.627700
4.060000,41.246855,37.574724,0.000000,9.539675,6.908775,0.000000,0.000000,0.000000,0.626793
4.070000,41.342229,37.643729,0.000000,9.535146,6.892277,0.000000,0.000000,0.000000,0.625884
4.080000,41.437558,37.712569,0.000000,9.530607,6.875750,0.000000,0.000000,0.000000,0.624970
4.090000,41.532841,37.781244,0.000000,9.526058,6.859192,0.000000,0.000000,0.000000,0.624053
4.100000,41.628079,37.849753,0.000000,9.521498,6.842605,0.000000,0.000000,0.000000,0.623132
4.110000,41.723271,37.918096,0.000000,9.516928,6.825987,0.000000,0.000000,0.000000,0.622208
4.120000,41.818418,37.986272,0.000000,9.512347,6.809339,0.000000,0.000000,0.000000,0.621279
4.130000,41.913518,38.054282,0.000000,9.507756,6.792662,0.000000,0.000000,0.000000,0.620347
4.140000,42.008573,38.122126,0.000000,9.503155,6.775954,0.000000,0.000000,0.000000,0.619412
4.150000,42.103581,38.189801,0.000000,9.498543,6.759217,0.000000,0.000000,0.000000,0.618473
4.160000,42.198544,38.257310,0.000000,9.493920,6.742450,0.000000,0.000000,0.000000,0.617530
4.170000,42.293460,38.324650,0.000000,9.489288,6.725654,0.000000,0.000000,0.000000,0.616583
4.180000,42.388329,38.391823,0.000000,9.484644,6.708828,0.000000,0.000000,0.000000,0.615632
4.190000,42.483153,38.458827,0.000000,9.479991,6.691973,0.000000,0.000000,0.000000,0.614678
4.200000,42.577929,38.525662,0.000000,9.475327,6.675088,0.000000,0.000000,0.000000,0.613720
4.210000,42.672659,38.592328,0.000000,9.470652,6.658175,0.000000,0.000000,0.000000,0.612758
4.220000,42.767342,38.658826,0.000000,9.465968,6.641231,0.000000,0.000000,0.000000,0.611793
4.230000,42.861978,38.725153,0.000000,9.461272,6.624259,0.000000,0.000000,0.000000,0.610823
4.240000,42.956568,38.791311,0.000000,9.456567,6.607258,0.000000,0.000000,0.000000,0.609850
4.250000,43.051110,38.857298,0.000000,9.451851,6.590228,0.000000,0.000000,0.000000,0.608873
4.260000,43.145605,38.923115,0.000000,9.447125,6.573169,0.000000,0.000000,0.000000,0.607892
4.270000,43.240052,38.988761,0.000000,9.442388,6.556081,0.000000,0.000000,0.000000,0.606907
4.280000,43.334452,39.054237,0.000000,9.437641,6.538964,0.000000,0.000000,0.000000,0.605918
4.290000,43.428805,39.119541,0.000000,9.432884,6.521818,0.000000,0.000000,0.000000,0.604925
4.300000,43.523110,39.184673,0.000000,9.428116,6.504644,0.000000,0.000000,0.000000,0.603929
4.310000,43.617367,39.249633,0.000000,9.423338,6.487442,0.000000,0.000000,0.000000,0.602928
4.320000,43.711577,39.314422,0.000000,9.418550,6.470211,0.000000,0.000000,0.000000,0.601924
4.330000,43.805738,39.379037,0.000000,9.413751,6.452951,0.000000,0.000000,0.000000,0.600915
4.340000,43.899852,39.443481,0.000000,9.408942,6.435664,0.000000,0.000000,0.000000,0.599903
4.350000,43.993917,39.507751,0.000000,9.404123,6.418348,0.000000,0.000000,0.000000,0.598887
4.360000,44.087934,39.571847,0.000000,9.399293,6.401004,0.000000,0.000000,0.000000,0.597866
4.370000,44.181903,39.635771,0.000000,9.394453,6.383631,0.000000,0.000000,0.000000,0.596842
4.380000,44.275823,39.699520,0.000000,9.389603,6.366231,0.000000,0.000000,0.000000,0.595814
4.390000,44.369695,39.763095,0.000000,9.384742,6.348803,0.000000,0.000000,0.000000,0.594781
4.400000,44.463518,39.826496,0.000000,9.379872,6.331347,0.000000,0.000000,0.000000,0.593745
4.410000,44.557292,39.889722,0.000000,9.374991,6.313863,0.000000,0.000000,0.000000,0.592704
4.420000,44.651018,39.952773,0.000000,9.370099,6.296352,0.000000,0.000000,0.000000,0.591660
4.430000,44.744694,40.015649,0.000000,9.365197,6.278813,0.000000,0.000000,0.000000,0.590611
4.440000,44.838322,40.078349,0.000000,9.360286,6.261246,0.000000,0.000000,0.000000,0.589558
4.450000,44.931900,40.140874,0.000000,9.355363,6.243652,0.000000,0.000000,0.000000,0.588501
4.460000,45.025429,40.203222,0.000000,9.350431,6.226031,0.000000,0.000000,0.000000,0.587440
4.470000,45.118908,40.265394,0.000000,9.345488,6.208382,0.000000,0.000000,0.000000,0.586375
4.480000,45.212339,40.327390,0.000000,9.340535,6.190706,0.000000,0.000000,0.000000,0.585306
4.490000,45.305719,40.389208,0.000000,9.335572,6.173003,0.000000,0.000000,0.000000,0.584232
4.500000,45.399050,40.450850,0.000000,9.330599,6.155273,0.000000,0.000000,0.000000,0.583155
4.510000,45.492331,40.512314,0.000000,9.325615,6.137516,0.000000,0.000000,0.000000,0.582073
4.520000,45.585562,40.573600,0.000000,9.320621,6.119731,0.000000,0.000000,0.000000,0.580987
4.530000,45.678743,40.634708,0.000000,9.315617,6.101920,0.000000,0.000000,0.000000,0.579897
4.540000,45.771875,40.695638,0.000000,9.310602,6.084083,0.000000,0.000000,0.000000,0.578802
4.550000,45.864955,40.756390,0.000000,9.305578,6.066218,0.000000,0.000000,0.000000,0.577703
4.560000,45.957986,40.816963,0.000000,9.300543,6.048327,0.000000,0.000000,0.000000,0.576600
4.570000,46.050966,40.877356,0.000000,9.295498,6.030410,0.000000,0.000000,0.000000,0.575493
4.580000,46.143896,40.937571,0.000000,9.290443,6.012466,0.000000,0.000000,0.000000,0.574381
4.590000,46.236775,40.997605,0.000000,9.285378,5.994495,0.000000,0.000000,0.000000,0.573265
4.600000,46.329604,41.057460,0.000000,9.280302,5.976499,0.000000,0.000000,0.000000,0.572144
4.610000,46.422381,41.117135,0.000000,9.275216,5.958476,0.000000,0.000000,0.000000,0.571020
4.620000,46.515108,41.176630,0.000000,9.270121,5.940427,0.000000,0.000000,0.000000,0.569891
4.630000,46.607783,41.235944,0.000000,9.265015,5.922351,0.000000,0.000000,0.000000,0.568757
4.640000,46.700408,41.295077,0.000000,9.259898,5.904250,0.000000,0.000000,0.000000,0.567619
4.650000,46.792981,41.354029,0.000000,9.254772,5.886123,0.000000,0.000000,0.000000,0.566477
4.660000,46.885503,41.412799,0.000000,9.249636,5.867971,0.000000,0.000000,0.000000,0.565330
4.670000,46.977974,41.471388,0.000000,9.244489,5.849792,0.000000,0.000000,0.000000,0.564179
4.680000,47.070393,41.529795,0.000000,9.239332,5.831588,0.000000,0.000000,0.000000,0.563024
4.690000,47.162761,41.588020,0.000000,9.234165,5.813358,0.000000,0.000000,0.000000,0.561864
4.700000,47.255076,41.646062,0.000000,9.228988,5.795103,0.000000,0.000000,0.000000,0.560699
4.710000,47.347340,41.703922,0.000000,9.223801,5.776822,0.000000,0.000000,0.000000,0.559530
4.720000,47.439552,41.761598,0.000000,9.218604,5.758516,0.000000,0.000000,0.000000,0.558357
4.730000,47.531712,41.819092,0.000000,9.213396,5.740185,0.000000,0.000000,0.000000,0.557178
4.740000,47.623820,41.876402,0.000000,9.208179,5.721828,0.000000,0.000000,0.000000,0.555996
4.750000,47.715876,41.933528,0.000000,9.202951,5.703447,0.000000,0.000000,0.000000,0.554809
4.760000,47.807879,41.990471,0.000000,9.197714,5.685040,0.000000,0.000000,0.000000,0.553617
4.770000,47.899830,42.047229,0.000000,9.192466,5.666609,0.000000,0.000000,0.000000,0.552420
4.780000,47.991729,42.103803,0.000000,9.187208,5.648152,0.000000,0.000000,0.000000,0.551220
4.790000,48.083574,42.160192,0.000000,9.181940,5.629671,0.000000,0.000000,0.000000,0.550014
4.800000,48.175367,42.216396,0.000000,9.176662,5.611165,0.000000,0.000000,0.000000,0.548804
4.810000,48.267108,42.272415,0.000000,9.171374,5.592635,0.000000,0.000000,0.000000,0.547589
4.820000,48.358795,42.328249,0.000000,9.166076,5.574080,0.000000,0.000000,0.000000,0.546369
4.830000,48.450429,42.383897,0.000000,9.160768,5.555500,0.000000,0.000000,0.000000,0.545145
4.840000,48.542010,42.439359,0.000000,9.155450,5.536896,0.000000,0.000000,0.000000,0.543916
4.850000,48.633538,42.494635,0.000000,9.150121,5.518268,0.000000,0.000000,0.000000,0.542682
4.860000,48.725013,42.549724,0.000000,9.144783,5.499616,0.000000,0.000000,0.000000,0.541444
4.870000,48.816434,42.604627,0.000000,9.139435,5.480939,0.000000,0.000000,0.000000,0.540201
4.880000,48.907801,42.659343,0.000000,9.134076,5.462239,0.000000,0.000000,0.000000,0.538953
4.890000,48.999115,42.713872,0.000000,9.128708,5.443514,0.000000,0.000000,0.000000,0.537700
4.900000,49.090375,42.768213,0.000000,9.123330,5.424766,0.000000,0.000000,0.000000,0.536442
4.910000,49.181582,42.822367,0.000000,9.117941,5.405994,0.000000,0.000000,0.000000,0.535180
4.920000,49.272734,42.876333,0.000000,9.112543,5.387198,0.000000,0.000000,0.000000,0.533913
4.930000,49.363833,42.930111,0.000000,9.107135,5.368379,0.000000,0.000000,0.000000,0.532641
4.940000,49.454877,42.983700,0.000000,9.101716,5.349536,0.000000,0.000000,0.000000,0.531364
4.950000,49.545867,43.037101,0.000000,9.096288,5.330669,0.000000,0.000000,0.000000,0.530082
4.960000,49.636803,43.090314,0.000000,9.090850,5.311779,0.000000,0.000000,0.000000,0.528795
4.970000,49.727684,43.143337,0.000000,9.085401,5.292866,0.000000,0.000000,0.000000,0.527503
4.980000,49.818511,43.196171,0.000000,9.079943,5.273930,0.000000,0.000000,0.000000,0.526207
4.990000,49.909283,43.248815,0.000000,9.074475,5.254970,0.000000,0.000000,0.000000,0.524905
5.000000,50.000000,43.301270,0.000000,9.068997,5.235988,0.000000,0.000000,0.000000,0.523599
5.010000,50.090663,43.353535,0.000000,9.063509,5.216982,0.000000,0.000000,0.000000,0.522287
5.020000,50.181270,43.405610,0.000000,9.058011,5.197954,0.000000,0.000000,0.000000,0.520971
5.030000,50.271823,43.457494,0.000000,9.052503,5.178903,0.000000,0.000000,0.000000,0.519649
5.040000,50.362320,43.509188,0.000000,9.046985,5.159829,0.000000,0.000000,0.000000,0.518323
5.050000,50.452762,43.560691,0.000000,9.041457,5.140732,0.000000,0.000000,0.000000,0.516991
5.060000,50.543149,43.612002,0.000000,9.035919,5.121613,0.000000,0.000000,0.000000,0.515654
5.070000,50.633481,43.663123,0.000000,9.030372,5.102471,0.000000,0.000000,0.000000,0.514313
5.080000,50.723757,43.714052,0.000000,9.024814,5.083307,0.000000,0.000000,0.000000,0.512966
5.090000,50.813977,43.764789,0.000000,9.019247,5.064121,0.000000,0.000000,0.000000,0.511614
5.100000,50.904142,43.815334,0.000000,9.013669,5.044913,0.000000,0.000000,0.000000,0.510257
5.110000,50.994250,43.865687,0.000000,9.008082,5.025682,0.000000,0.000000,0.000000,0.508894
5.120000,51.084303,43.915848,0.000000,9.002485,5.006429,0.000000,0.000000,0.000000,0.507527
5.130000,51.174300,43.965816,0.000000,8.996878,4.987155,0.000000,0.000000,0.000000,0.506154
5.140000,51.264241,44.015591,0.000000,8.991261,4.967858,0.000000,0.000000,0.000000,0.504776
5.150000,51.354125,44.065173,0.000000,8.985635,4.948540,0.000000,0.000000,0.000000,0.503393
5.160000,51.443953,44.114561,0.000000,8.979998,4.929200,0.000000,0.000000,0.000000,0.502005
5.170000,51.533725,44.163757,0.000000,8.974352,4.909838,0.000000,0.000000,0.000000,0.500611
5.180000,51.623440,44.212758,0.000000,8.968696,4.890455,0.000000,0.000000,0.000000,0.499213
5.190000,51.713099,44.261566,0.000000,8.963029,4.871051,0.000000,0.000000,0.000000,0.497808
5.200000,51.802701,44.310179,0.000000,8.957354,4.851625,0.000000,0.000000,0.000000,0.496399
5.210000,51.892246,44.358598,0.000000,8.951668,4.832177,0.000000,0.000000,0.000000,0.494984
5.220000,51.981734,44.406822,0.000000,8.945972,4.812709,0.000000,0.000000,0.000000,0.493564
5.230000,52.071165,44.454852,0.000000,8.940267,4.793219,0.000000,0.000000,0.000000,0.492139
5.240000,52.160540,44.502687,0.000000,8.934552,4.773709,0.000000,0.000000,0.000000,0.490708
5.250000,52.249856,44.550326,0.000000,8.928827,4.754177,0.000000,0.000000,0.000000,0.489271
5.260000,52.339116,44.597770,0.000000,8.923092,4.734625,0.000000,0.000000,0.000000,0.487830
5.270000,52.428318,44.645019,0.000000,8.917348,4.715052,0.000000,0.000000,0.000000,0.486383
5.280000,52.517463,44.692071,0.000000,8.911593,4.695458,0.000000,0.000000,0.000000,0.484930
5.290000,52.606550,44.738928,0.000000,8.905829,4.675844,0.000000,0.000000,0.000000,0.483472
5.300000,52.695580,44.785588,0.000000,8.900055,4.656209,0.000000,0.000000,0.000000,0.482008
5.310000,52.784551,44.832052,0.000000,8.894272,4.636553,0.000000,0.000000,0.000000,0.480539
5.320000,52.873465,44.878319,0.000000,8.888479,4.616878,0.000000,0.000000,0.000000,0.479065
5.330000,52.962321,44.924389,0.000000,8.882675,4.597182,0.000000,0.000000,0.000000,0.477585
5.340000,53.051118,44.970263,0.000000,8.876863,4.577466,0.000000,0.000000,0.000000,0.476099
5.350000,53.139858,45.015939,0.000000,8.871040,4.557729,0.000000,0.000000,0.000000,0.474608
5.360000,53.228539,45.061417,0.000000,8.865208,4.537973,0.000000,0.000000,0.000000,0.473111
5.370000,53.317162,45.106698,0.000000,8.859366,4.518197,0.000000,0.000000,0.000000,0.471608
5.380000,53.405726,45.151781,0.000000,8.853514,4.498401,0.000000,0.000000,0.000000,0.470100
5.390000,53.494232,45.196666,0.000000,8.847653,4.478586,0.000000,0.000000,0.000000,0.468587
5.400000,53.582679,45.241353,0.000000,8.841781,4.458750,0.000000,0.000000,0.000000,0.467067
5.410000,53.671068,45.285841,0.000000,8.835901,4.438895,0.000000,0.000000,0.000000,0.465542
5.420000,53.759397,45.330130,0.000000,8.830010,4.419021,0.000000,0.000000,0.000000,0.464011
5.430000,53.847668,45.374221,0.000000,8.824110,4.399127,0.000000,0.000000,0.000000,0.462475
5.440000,53.935880,45.418113,0.000000,8.818200,4.379214,0.000000,0.000000,0.000000,0.460933
5.450000,54.024032,45.461805,0.000000,8.812280,4.359282,0.000000,0.000000,0.000000,0.459385
5.460000,54.112125,45.505299,0.000000,8.806351,4.339331,0.000000,0.000000,0.000000,0.457831
5.470000,54.200159,45.548592,0.000000,8.800412,4.319361,0.000000,0.000000,0.000000,0.456271
5.480000,54.288133,45.591686,0.000000,8.794464,4.299371,0.000000,0.000000,0.000000,0.454706
5.490000,54.376048,45.634579,0.000000,8.788505,4.279363,0.000000,0.000000,0.000000,0.453135
5.500000,54.463904,45.677273,0.000000,8.782538,4.259336,0.000000,0.000000,0.000000,0.451558
5.510000,54.551699,45.719766,0.000000,8.776560,4.239291,0.000000,0.000000,0.000000,0.449975
5.520000,54.639435,45.762059,0.000000,8.770573,4.219226,0.000000,0.000000,0.000000,0.448386
5.530000,54.727110,45.804150,0.000000,8.764576,4.199144,0.000000,0.000000,0.000000,0.446792
5.540000,54.814726,45.846041,0.000000,8.758570,4.179042,0.000000,0.000000,0.000000,0.445191
5.550000,54.902282,45.887731,0.000000,8.752554,4.158923,0.000000,0.000000,0.000000,0.443584
5.560000,54.989777,45.929220,0.000000,8.746529,4.138785,0.000000,0.000000,0.000000,0.441972
5.570000,55.077212,45.970507,0.000000,8.740494,4.118629,0.000000,0.000000,0.000000,0.440354
5.580000,55.164587,46.011592,0.000000,8.734449,4.098455,0.000000,0.000000,0.000000,0.438729
5.590000,55.251901,46.052476,0.000000,8.728395,4.078264,0.000000,0.000000,0.000000,0.437099
5.600000,55.339155,46.093158,0.000000,8.722331,4.058054,0.000000,0.000000,0.000000,0.435462
5.610000,55.426348,46.133637,0.000000,8.716257,4.037826,0.000000,0.000000,0.000000,0.433820
5.620000,55.513480,46.173914,0.000000,8.710174,4.017581,0.000000,0.000000,0.000000,0.432171
5.630000,55.600551,46.213989,0.000000,8.704082,3.997318,0.000000,0.000000,0.000000,0.430517
5.640000,55.687562,46.253860,0.000000,8.697980,3.977037,0.000000,0.000000,0.000000,0.428856
5.650000,55.774511,46.293529,0.000000,8.691868,3.956739,0.000000,0.000000,0.000000,0.427189
5.660000,55.861399,46.332995,0.000000,8.685747,3.936424,0.000000,0.000000,0.000000,0.425516
5.670000,55.948226,46.372258,0.000000,8.679617,3.916092,0.000000,0.000000,0.000000,0.423837
5.680000,56.034991,46.411317,0.000000,8.673476,3.895742,0.000000,0.000000,0.000000,0.422152
5.690000,56.121695,46.450172,0.000000,8.667327,3.875375,0.000000,0.000000,0.000000,0.420460
5.700000,56.208338,46.488824,0.000000,8.661168,3.854991,0.000000,0.000000,0.000000,0.418763
5.710000,56.294919,46.527272,0.000000,8.654999,3.834591,0.000000,0.000000,0.000000,0.417059
5.720000,56.381438,46.565516,0.000000,8.648821,3.814173,0.000000,0.000000,0.000000,0.415349
5.730000,56.467895,46.603556,0.000000,8.642633,3.793739,0.000000,0.000000,0.000000,0.413632
5.740000,56.554290,46.641391,0.000000,8.636436,3.773288,0.000000,0.000000,0.000000,0.411910
5.750000,56.640624,46.679021,0.000000,8.630229,3.752820,0.000000,0.000000,0.000000,0.410181
5.760000,56.726895,46.716447,0.000000,8.624013,3.732336,0.000000,0.000000,0.000000,0.408445
5.770000,56.813104,46.753668,0.000000,8.617788,3.711836,0.000000,0.000000,0.000000,0.406704
5.780000,56.899251,46.790684,0.000000,8.611553,3.691320,0.000000,0.000000,0.000000,0.404956
5.790000,56.985335,46.827494,0.000000,8.605308,3.670787,0.000000,0.000000,0.000000,0.403202
5.800000,57.071357,46.864099,0.000000,8.599054,3.650238,0.000000,0.000000,0.000000,0.401441
5.810000,57.157316,46.900499,0.000000,8.592791,3.629673,0.000000,0.000000,0.000000,0.399674
5.820000,57.243213,46.936693,0.000000,8.586518,3.609092,0.000000,0.000000,0.000000,0.397901
5.830000,57.329046,46.972681,0.000000,8.580236,3.588496,0.000000,0.000000,0.000000,0.396121
5.840000,57.414817,47.008463,0.000000,8.573945,3.567883,0.000000,0.000000,0.000000,0.394335
5.850000,57.500525,47.044038,0.000000,8.567644,3.547255,0.000000,0.000000,0.000000,0.392542
5.860000,57.586170,47.079408,0.000000,8.561333,3.526612,0.000000,0.000000,0.000000,0.390743
5.870000,57.671752,47.114571,0.000000,8.555014,3.505953,0.000000,0.000000,0.000000,0.388937
5.880000,57.757270,47.149527,0.000000,8.548685,3.485278,0.000000,0.000000,0.000000,0.387125
5.890000,57.842726,47.184276,0.000000,8.542346,3.464588,0.000000,0.000000,0.000000,0.385306
5.900000,57.928117,47.218819,0.000000,8.535998,3.443883,0.000000,0.000000,0.000000,0.383480
5.910000,58.013445,47.253154,0.000000,8.529641,3.423163,0.000000,0.000000,0.000000,0.381649
5.920000,58.098710,47.287282,0.000000,8.523275,3.402428,0.000000,0.000000,0.000000,0.379810
5.930000,58.183911,47.321202,0.000000,8.516899,3.381678,0.000000,0.000000,0.000000,0.377965
5.940000,58.269048,47.354915,0.000000,8.510513,3.360914,0.000000,0.000000,0.000000,0.376113
5.950000,58.354121,47.388421,0.000000,8.504119,3.340134,0.000000,0.000000,0.000000,0.374255
5.960000,58.439130,47.421718,0.000000,8.497715,3.319340,0.000000,0.000000,0.000000,0.372390
5.970000,58.524075,47.454807,0.000000,8.491302,3.298531,0.000000,0.000000,0.000000,0.370519
5.980000,58.608956,47.487688,0.000000,8.484879,3.277708,0.000000,0.000000,0.000000,0.368640
5.990000,58.693773,47.520361,0.000000,8.478447,3.256870,0.000000,0.000000,0.000000,0.366755
6.000000,58.778525,47.552826,0.000000,8.472006,3.236018,0.000000,0.000000,0.000000,0.364864
6.010000,58.863213,47.585082,0.000000,8.465556,3.215152,0.000000,0.000000,0.000000,0.362965
6.020000,58.947836,47.617129,0.000000,8.459096,3.194272,0.000000,0.000000,0.000000,0.361060
6.030000,59.032395,47.648967,0.000000,8.452627,3.173378,0.000000,0.000000,0.000000,0.359148
6.040000,59.116889,47.680596,0.000000,8.446149,3.152470,0.000000,0.000000,0.000000,0.357230
6.050000,59.201318,47.712016,0.000000,8.439661,3.131548,0.000000,0.000000,0.000000,0.355304
6.060000,59.285682,47.743227,0.000000,8.433164,3.110612,0.000000,0.000000,0.000000,0.353372
6.070000,59.369981,47.774229,0.000000,8.426658,3.089663,0.000000,0.000000,0.000000,0.351433
6.080000,59.454215,47.805020,0.000000,8.420143,3.068700,0.000000,0.000000,0.000000,0.349487
6.090000,59.538384,47.835603,0.000000,8.413619,3.047724,0.000000,0.000000,0.000000,0.347534
6.100000,59.622487,47.865975,0.000000,8.407085,3.026734,0.000000,0.000000,0.000000,0.345575
6.110000,59.706526,47.896137,0.000000,8.400542,3.005731,0.000000,0.000000,0.000000,0.343608
6.120000,59.790498,47.926089,0.000000,8.393990,2.984715,0.000000,0.000000,0.000000,0.341635
6.130000,59.874405,47.955831,0.000000,8.387428,2.963685,0.000000,0.000000,0.000000,0.339655
6.140000,59.958247,47.985363,0.000000,8.380858,2.942643,0.000000,0.000000,0.000000,0.337668
6.150000,60.042023,48.014684,0.000000,8.374278,2.921588,0.000000,0.000000,0.000000,0.335673
6.160000,60.125732,48.043795,0.000000,8.367689,2.900520,0.000000,0.000000,0.000000,0.333672
6.170000,60.209376,48.072695,0.000000,8.361091,2.879439,0.000000,0.000000,0.000000,0.331664
6.180000,60.292954,48.101384,0.000000,8.354484,2.858346,0.000000,0.000000,0.000000,0.329649
6.190000,60.376466,48.129862,0.000000,8.347867,2.837240,0.000000,0.000000,0.000000,0.327627
6.200000,60.459911,48.158128,0.000000,8.341242,2.816122,0.000000,0.000000,0.000000,0.325598
6.210000,60.543291,48.186184,0.000000,8.334607,2.794991,0.000000,0.000000,0.000000,0.323562
6.220000,60.626604,48.214028,0.000000,8.327963,2.773848,0.000000,0.000000,0.000000,0.321519
6.230000,60.709850,48.241661,0.000000,8.321310,2.752693,0.000000,0.000000,0.000000,0.319469
6.240000,60.793030,48.269082,0.000000,8.314648,2.731526,0.000000,0.000000,0.000000,0.317412
6.250000,60.876143,48.296291,0.000000,8.307977,2.710347,0.000000,0.000000,0.000000,0.315348
6.260000,60.959189,48.323289,0.000000,8.301296,2.689156,0.000000,0.000000,0.000000,0.313277
6.270000,61.042169,48.350074,0.000000,8.294607,2.667953,0.000000,0.000000,0.000000,0.311198
6.280000,61.125081,48.376648,0.000000,8.287908,2.646738,0.000000,0.000000,0.000000,0.309113
6.290000,61.207927,48.403009,0.000000,8.281201,2.625512,0.000000,0.000000,0.000000,0.307020
6.300000,61.290705,48.429158,0.000000,8.274484,2.604274,0.000000,0.000000,0.000000,0.304920
6.310000,61.373417,48.455095,0.000000,8.267758,2.583025,0.000000,0.000000,0.000000,0.302813
6.320000,61.456060,48.480819,0.000000,8.261023,2.561765,0.000000,0.000000,0.000000,0.300699
6.330000,61.538637,48.506330,0.000000,8.254279,2.540493,0.000000,0.000000,0.000000,0.298578
6.340000,61.621146,48.531628,0.000000,8.247526,2.519210,0.000000,0.000000,0.000000,0.296450
6.350000,61.703588,48.556714,0.000000,8.240764,2.497917,0.000000,0.000000,0.000000,0.294314
6.360000,61.785961,48.581587,0.000000,8.233993,2.476612,0.000000,0.000000,0.000000,0.292171
6.370000,61.868267,48.606246,0.000000,8.227213,2.455296,0.000000,0.000000,0.000000,0.290021
6.380000,61.950506,48.630693,0.000000,8.220424,2.433970,0.000000,0.000000,0.000000,0.287864
6.390000,62.032676,48.654926,0.000000,8.213626,2.412632,0.000000,0.000000,0.000000,0.285700
6.400000,62.114778,48.678945,0.000000,8.206819,2.391285,0.000000,0.000000,0.000000,0.283528
6.410000,62.196812,48.702751,0.000000,8.200003,2.369927,0.000000,0.000000,0.000000,0.281349
6.420000,62.278778,48.726344,0.000000,8.193177,2.348558,0.000000,0.000000,0.000000,0.279163
6.430000,62.360676,48.749722,0.000000,8.186343,2.327179,0.000000,0.000000,0.000000,0.276969
6.440000,62.442505,48.772887,0.000000,8.179500,2.305790,0.000000,0.000000,0.000000,0.274768
6.450000,62.524266,48.795838,0.000000,8.172648,2.284391,0.000000,0.000000,0.000000,0.272560
6.460000,62.605958,48.818575,0.000000,8.165787,2.262981,0.000000,0.000000,0.000000,0.270345
6.470000,62.687581,48.841098,0.000000,8.158917,2.241562,0.000000,0.000000,0.000000,0.268122
6.480000,62.769136,48.863406,0.000000,8.152038,2.220133,0.000000,0.000000,0.000000,0.265892
